State,County,Population,OHU,LowAccess_Pop,Latitude,Longitude
Alabama,Autauga,54571,20221,18092.66135,32.532237,-86.64644
Alabama,Baldwin,227985,89968,55003.04106,30.659218,-87.746067
Alabama,Barbour,44046,16368,8574.646376,31.870253,-85.405104
Alabama,Bibb,178462,68248,49852.98841,33.015893,-87.127148
Alabama,Blount,180332,70843,44528.38356,33.977358,-86.56644
Alabama,Bullock,10914,3745,6099.953134,32.101759,-85.717261
Alabama,Butler,717565,273460,218500.8164,31.751667,-86.681969
Alabama,Calhoun,355309,140101,95613.39783,33.771706,-85.822513
Alabama,Chambers,69311,25885,10889.39126,32.915504,-85.394032
Alabama,Cherokee,454628,169396,144009.3012,34.069515,-85.654242
Alabama,Chilton,43643,16558,4707.387221,32.854051,-86.726607
Alabama,Choctaw,37611,15582,11277.78933,31.990954,-88.248889
Alabama,Clarke,182599,71694,60162.2439,31.685521,-87.818624
Alabama,Clay,672264,258704,197954.4861,33.2704,-85.863525
Alabama,Cleburne,40942,16969,4132.012582,33.671964,-85.516126
Alabama,Coffee,145100,55592,26948.35019,31.402258,-85.989602
Alabama,Colbert,54428,22773,17572.77156,34.703112,-87.801457
Alabama,Conecuh,13228,5625,3558.35944,31.430926,-86.988722
Alabama,Coosa,11539,4794,2825.774138,32.931445,-86.243482
Alabama,Covington,63294,25593,6756.999304,31.243987,-86.448721
Alabama,Crenshaw,13906,5652,5278.966487,31.732826,-86.319222
Alabama,Cullman,80406,31864,6158.777693,34.131923,-86.869267
Alabama,Dale,50251,20065,10356.19487,31.430654,-85.609476
Alabama,Dallas,2502987,908068,452455.5145,32.33354,-87.114356
Alabama,DeKalb,942000,364345,217950.5705,34.460929,-85.803992
Alabama,Elmore,106341,38441,14818.4166,32.597229,-86.142735
Alabama,Escambia,335938,130395,124500.585,31.122287,-87.16841
Alabama,Etowah,104430,42036,37198.18895,34.047641,-86.034263
Alabama,Fayette,761550,305803,164976.8656,33.716157,-87.764292
Alabama,Franklin,2139570,854052,475939.8452,34.441989,-87.842814
Alabama,Geneva,26790,10920,2243.087078,31.092382,-85.821022
Alabama,Greene,771166,307739,170626.8113,32.844497,-87.9642
Alabama,Hale,52033,18119,10315.63442,32.752796,-87.623061
Alabama,Henry,493701,187422,158087.3222,31.516978,-85.239971
Alabama,Houston,292632,113874,86808.4249,31.158183,-85.296411
Alabama,Jackson,1714413,680780,424083.0465,34.764114,-85.980056
Alabama,Jefferson,3584625,1425104,795966.0285,33.553444,-86.896536
Alabama,Lamar,138332,54092,40813.42088,33.787085,-88.087431
Alabama,Lauderdale,200785,79565,32501.08672,34.904122,-87.650997
Alabama,Lawrence,401668,160630,66065.95696,34.529776,-87.321865
Alabama,Lee,1079698,437359,354309.9614,32.604064,-85.353048
Alabama,Limestone,106166,39945,15491.18315,34.810239,-86.981399
Alabama,Lowndes,180311,67586,38529.0279,32.147888,-86.650586
Alabama,Macon,218696,88917,55729.72944,32.387027,-85.692887
Alabama,Madison,1359917,527573,406531.8461,34.764238,-86.55108
Alabama,Marengo,21027,8535,6390.593492,32.247591,-87.791091
Alabama,Marion,1962056,780620,464295.4254,34.138219,-87.881551
Alabama,Marshall,365726,142510,77571.57669,34.309564,-86.321668
Alabama,Mobile,412992,158435,103227.0147,30.684572,-88.196568
Alabama,Monroe,1549967,614834,378361.2179,31.580332,-87.383266
Alabama,Montgomery,3519362,1344145,1001836.428,32.202881,-86.204461
Alabama,Morgan,368497,141012,73000.09859,34.454484,-86.846402
Alabama,Perry,212599,81917,22989.98106,32.639005,-87.293827
Alabama,Pickens,168401,64531,53889.62842,33.296793,-88.096863
Alabama,Pike,301356,117274,36802.78697,31.798651,-85.941604
Alabama,Randolph,304819,118825,65638.06653,33.296475,-85.464068
Alabama,Russell,106379,43746,7955.772209,32.289811,-85.18698
Alabama,St. Clair,526494,204671,153481.2872,33.712963,-86.315663
Alabama,Shelby,1325013,502663,403540.3285,33.263043,-86.678089
Alabama,Sumter,247458,99511,59141.16216,32.597481,-88.200057
Alabama,Talladega,82291,31890,14101.78617,33.369314,-86.17593
Alabama,Tallapoosa,41616,16985,1513.161796,32.863369,-85.799553
Alabama,Tuscaloosa,194656,76141,46589.143,33.29022,-87.522783
Alabama,Walker,203640,74037,32023.69963,33.791558,-87.301094
Alabama,Washington,2520911,971742,620393.0483,31.405217,-88.197564
Alabama,Wilcox,20925,7375,5069.936099,31.990082,-87.304935
Alabama,Winston,43682,17657,4372.762036,34.154607,-87.36529
Alaska,Aleutians East,3141,553,2203.00003,55.245044,-161.997477
Alaska,Aleutians West,5561,1212,1196.134742,51.948964,179.621188
Alaska,Anchorage,291826,107332,87871.78917,61.17425,-149.284329
Alaska,Bethel,17013,4651,13761.26657,60.929141,-160.152625
Alaska,Bristol Bay,997,423,996.9999981,58.741615,-156.966992
Alaska,Denali,1826,806,1826.000014,63.681106,-150.026544
Alaska,Dillingham,4847,1563,2461.509666,59.543326,-158.267123
Alaska,Fairbanks North Star,97581,36441,37788.16088,64.692317,-146.601733
Alaska,Haines,2508,1149,518.8941366,59.098404,-135.575791
Alaska,Hoonah-Angoon,95,41,95.00000005,58.253462,-136.320731
Alaska,0,13798,5718,4475.521492,na,na
Alaska,Juneau,57939,22714,13010.67699,58.643523,-134.281167
Alaska,Kenai Peninsula,55400,22161,12422.44924,60.366668,-152.322283
Alaska,Ketchikan Gateway,13477,5305,191.092422,55.449938,-131.106685
Alaska,Kodiak Island,13592,4630,1848.896404,57.7044,-153.918372
Alaska,Lake and Peninsula,1631,553,1628.68562,58.108674,-156.414001
Alaska,Matanuska-Susitna,88995,31824,29164.49037,62.279075,-149.617562
Alaska,Nome,9492,2815,5276.007638,64.783686,-164.188912
Alaska,North Slope,9430,2029,5777.798082,69.449343,-153.47283
Alaska,Northwest Arctic,7523,1919,4363.809285,67.005066,-160.021086
Alaska,Sitka,8881,3545,3066.588386,57.193204,-135.367396
Alaska,Skagway Municipality,968,436,2.999953762,59.575097,-135.335418
Alaska,Southeast Fairbanks,7029,2567,3323.084475,63.864997,-143.218628
Alaska,Valdez-Cordova,9636,3966,5010.710886,61.34984,-145.023141
Alaska,Yakutat,662,270,662.000001,59.963024,-141.761587
Alaska,Yukon-Koyukuk,5588,2217,5587.999995,65.375718,-151.577873
Arizona,Apache,71518,22771,43728.95617,35.385084,-109.490172
Arizona,Cochise,131346,50865,57849.36056,31.840129,-109.775163
Arizona,Coconino,134421,46711,41039.05276,35.829692,-111.773728
Arizona,Gila,53597,22000,20828.69022,33.789618,-110.81187
Arizona,Graham,48678,16017,17033.91328,32.931828,-109.87831
Arizona,Greenlee,8437,3188,5724.898759,33.238872,-109.242323
Arizona,La Paz,20489,9198,8311.775539,33.72761,-114.038806
Arizona,Maricopa,3817117,1411583,755125.4265,33.346541,-112.495534
Arizona,Mohave,200186,82539,91285.56394,35.717705,-113.749689
Arizona,Navajo,107449,35658,43617.76519,35.390785,-110.321025
Arizona,Pima,980263,388660,274756.0676,32.128523,-111.783027
Arizona,Pinal,375770,125590,178537.8316,32.918538,-111.366387
Arizona,Santa Cruz,309802,109792,73177.63142,31.525733,-110.845228
Arizona,Yavapai,211033,90903,73882.46768,34.631212,-112.577385
Arizona,Yuma,205794,68719,47742.26592,32.773942,-113.910905
Arkansas,Arkansas,19019,8005,8661.668024,34.28957,-91.376547
Arkansas,Ashley,21853,8765,5209.597258,33.190835,-91.772267
Arkansas,Baxter,41513,18748,6957.047759,36.280759,-92.330476
Arkansas,Benton,599750,229484,139904.6111,36.337836,-94.256224
Arkansas,Boone,485601,185059,160864.4596,36.304299,-93.079236
Arkansas,Bradley,110471,42620,37258.02895,33.466549,-92.169156
Arkansas,Carroll,527386,202460,130626.7936,36.337774,-93.541663
Arkansas,Chicot,11800,4579,7301.140186,33.267139,-91.297158
Arkansas,Clark,2748857,1021113,551359.2802,34.053316,-93.176208
Arkansas,Cleveland,362522,140277,89987.38357,33.893201,-92.188714
Arkansas,Columbia,456789,175663,82425.58948,33.223038,-93.232843
Arkansas,Conway,21273,8463,5243.060692,35.265702,-92.689248
Arkansas,Craighead,96443,37291,21050.01072,35.827729,-90.631421
Arkansas,Crawford,349301,138263,73055.61598,35.583011,-94.236219
Arkansas,Crittenden,60217,22807,12195.19123,35.211879,-90.315332
Arkansas,Cross,17870,7002,3455.59733,35.285692,-90.763984
Arkansas,Desha,13008,5321,4205.687195,33.828752,-91.244103
Arkansas,Drew,18509,7360,4846.658314,33.587242,-91.722778
Arkansas,Faulkner,113237,42614,33391.4693,35.146286,-92.324711
Arkansas,Fulton,1110618,451966,306251.1578,36.383619,-91.819664
Arkansas,Garland,96024,40994,28792.84795,34.578852,-93.146932
Arkansas,Grant,352847,132325,78943.04171,34.285568,-92.422979
Arkansas,Hempstead,22609,8839,7145.461332,33.728611,-93.665809
Arkansas,Hot Spring,32923,12664,6743.822173,34.315177,-92.944147
Arkansas,Howard,444622,166298,106648.1949,34.083064,-93.990931
Arkansas,Independence,36647,14391,4279.818068,35.737499,-91.559942
Arkansas,Izard,13696,5731,150.8230515,36.094879,-91.913625
Arkansas,Johnson,1121732,429272,229401.5634,35.573359,-93.466322
Arkansas,Lafayette,335661,130744,93591.10019,33.240629,-93.611514
Arkansas,Lincoln,633028,251267,131107.9014,33.957675,-91.727626
Arkansas,Little River,13171,5411,67.79998058,33.699497,-94.229774
Arkansas,Logan,232160,89182,45918.19019,35.218654,-93.72091
Arkansas,Lonoke,68356,25295,11161.42453,34.755114,-91.894132
Arkansas,Miller,74335,29562,17839.49177,33.305505,-93.901502
Arkansas,Mississippi,60838,22921,8887.17647,35.766944,-90.052207
Arkansas,Nevada,107761,45224,39004.38702,33.666699,-93.305072
Arkansas,Newton,216811,79175,56868.05692,35.910742,-93.215899
Arkansas,Ouachita,179840,69694,56600.17231,33.591168,-92.878413
Arkansas,Phillips,36094,14561,12114.27461,34.423687,-90.855593
Arkansas,Poinsett,24583,9754,8164.279543,35.56887,-90.681104
Arkansas,Polk,1365371,526254,366071.066,34.490915,-94.230884
Arkansas,Pope,77219,29918,15496.28478,35.456557,-93.026818
Arkansas,Prairie,9894,4236,4406.063546,34.831116,-91.55362
Arkansas,Pulaski,564530,227718,161027.5849,34.770311,-92.312996
Arkansas,St. Francis,28258,9616,8555.787976,35.014026,-90.742138
Arkansas,Saline,225207,88250,60264.4944,34.648525,-92.674463
Arkansas,Scott,500890,191475,108874.9774,34.858869,-94.063641
Arkansas,Searcy,8195,3574,2757.112548,35.896387,-92.695888
Arkansas,Sebastian,125744,49599,11612.09191,35.196981,-94.274989
Arkansas,Sevier,127749,48412,27272.65713,33.994877,-94.243279
Arkansas,Sharp,17264,7360,5786.930043,36.173399,-91.471069
Arkansas,Stone,62382,25180,12413.35869,35.857017,-92.140508
Arkansas,Union,1109054,396630,200811.9143,33.168219,-92.598145
Arkansas,Van Buren,106671,41715,7317.270351,35.582953,-92.515976
Arkansas,White,169369,66314,29402.81522,35.255118,-91.753034
Arkansas,Woodruff,7260,3134,381.780216,35.192777,-91.244535
Arkansas,Yell,22185,8219,3386.844795,34.997713,-93.408303
California,Alameda,1510271,545138,115055.1784,37.647139,-121.912488
California,Alpine,1175,497,575.1625917,38.621783,-119.798352
California,Amador,38091,14569,5.355327736,38.44355,-120.653856
California,Butte,233001,92907,46941.52575,39.665959,-121.601919
California,Calaveras,45578,18886,7456.005539,38.1839,-120.561441
California,Colusa,21419,7056,3262.053241,39.177739,-122.237563
California,Contra Costa,1049025,375364,251688.592,37.919479,-121.951543
California,Del Norte,28610,9907,9843.898114,41.763958,-124.003614
California,El Dorado,181058,70223,46775.62231,38.785532,-120.534398
California,Fresno,930450,289391,125491.7562,36.761006,-119.655019
California,Glenn,28122,9800,6593.206193,39.602546,-122.4017
California,Humboldt,160966,66529,22474.48234,40.706655,-123.926176
California,Imperial,174528,49126,30032.16293,33.040814,-115.3554
California,Inyo,18546,8049,5366.186819,36.561977,-117.403927
California,Kern,839631,254610,186009.1957,35.346629,-118.729506
California,Kings,2657682,958089,47288.29232,36.072478,-119.81553
California,Lake,1876613,706361,614020.3895,39.094802,-122.746757
California,Lassen,34895,10058,9725.486084,40.721086,-120.629952
California,Los Angeles,9818605,3241204,682406.658,34.196398,-118.261862
California,Madera,150865,43317,20481.28282,37.209821,-119.749802
California,Marin,252409,103210,32794.29494,38.051817,-122.745974
California,Mariposa,18251,7693,3193.816861,37.57003,-119.912861
California,Mendocino,87841,34945,15681.49397,39.432388,-123.442881
California,Merced,255793,75642,57891.34229,37.194806,-120.722802
California,Modoc,9686,4064,3013.024836,41.592918,-120.71837
California,Mono,14202,5768,8121.352476,37.915836,-118.875167
California,Monterey,415057,125946,69969.91374,36.240107,-121.315572
California,Napa,136484,48876,11081.32664,38.5071,-122.325904
California,Orange,4826896,1655695,666148.9672,33.675687,-117.777207
California,Placer,348432,132627,112690.1832,39.062032,-120.722718
California,Plumas,20007,8977,1259.815163,39.992295,-120.824371
California,Riverside,2189641,686260,545708.1571,33.729828,-116.002239
California,Sacramento,1418788,513945,260308.377,38.450016,-121.340441
California,San Benito,55269,16805,9873.643854,36.610702,-121.085296
California,San Bernardino,2035210,611618,484591.7235,34.85722,-116.181197
California,San Diego,3095313,1086865,454868.9211,33.023604,-116.776117
California,San Francisco,805235,345811,4865.485435,37.727239,-123.032229
California,San Joaquin,685306,215007,102827.888,37.934982,-121.272244
California,San Luis Obispo,269637,102016,50369.01179,35.385224,-120.447544
California,San Mateo,718451,257837,70819.1235,37.414672,-122.371546
California,Santa Barbara,423895,142104,46136.98245,34.537057,-120.039973
California,Santa Clara,1781642,604204,148010.4443,37.220777,-121.690622
California,Shasta,177223,70346,37569.59953,40.760514,-122.043556
California,Sierra,15228,7399,6361.242982,39.576925,-120.521993
California,Siskiyou,44900,19505,12806.50277,41.587986,-122.533287
California,Solano,413344,141758,83561.31673,38.267226,-121.939594
California,Sonoma,483878,185825,75990.73251,38.525182,-122.92611
California,Stanislaus,514453,165180,61495.99345,37.562316,-121.002831
California,Sutter,94737,31437,33560.26138,39.03619,-121.70394
California,Tehama,63463,23767,12879.30809,40.126157,-122.232274
California,Trinity,28371,12225,3587.149064,40.647803,-123.114476
California,Tulare,442179,130352,55054.46265,36.228834,-118.781055
California,Tuolumne,55365,22156,15384.71968,38.021434,-119.964733
California,Ventura,823318,266920,132338.6871,34.358741,-119.133143
California,Yolo,200849,70872,27310.25475,38.679595,-121.902441
California,Yuba,72155,24307,12769.73758,39.266247,-121.340781
Colorado,Adams,786662,286366,158458.5569,39.874325,-104.331872
Colorado,Alamosa,15445,5995,2209.273134,37.568442,-105.788041
Colorado,Arapahoe,572003,224011,82844.16386,39.644554,-104.331706
Colorado,Archuleta,12084,5267,5186.903364,37.202395,-107.050863
Colorado,Baca,3788,1685,955.2245048,37.306693,-102.537758
Colorado,Bent,6499,1832,819.2808651,37.931891,-103.077584
Colorado,Boulder,294567,119300,57164.92379,40.09497,-105.397691
Colorado,Broomfield,55889,21414,21155.42472,39.95321,-105.051995
Colorado,Chaffee,17809,7601,1836.590824,38.738223,-106.316683
Colorado,Cheyenne,14560,6344,3140.375075,38.835386,-102.604585
Colorado,Clear Creek,9088,4208,1116.008918,39.669732,-105.69257
Colorado,Conejos,8256,3118,463.7761987,37.213406,-106.176447
Colorado,Costilla,3524,1550,3522.007212,37.277547,-105.42894
Colorado,Crowley,5823,1306,459.4849619,38.30618,-103.772736
Colorado,Custer,66946,27940,32068.43523,38.101994,-105.373515
Colorado,Delta,73252,30783,10017.8963,38.861756,-107.864757
Colorado,Denver,600158,263107,67255.94902,39.76185,-104.881105
Colorado,Dolores,2064,899,2063.999995,37.747602,-108.530383
Colorado,Douglas,1355733,521103,330417.409,39.325414,-104.925987
Colorado,Eagle,52197,19236,9125.706552,39.626992,-106.695169
Colorado,Elbert,43252,16443,10169.22209,39.310582,-104.117729
Colorado,El Paso,1422910,492516,364691.9512,38.827383,-104.527472
Colorado,Fremont,107630,39537,41989.88145,38.45517,-105.424958
Colorado,Garfield,127662,48920,28468.17288,39.599352,-107.90978
Colorado,Gilpin,5441,2460,0,39.861156,-105.528878
Colorado,Grand,24068,10358,1131.285112,40.123205,-106.095935
Colorado,Gunnison,15324,6516,1498.074257,38.67264,-107.066506
Colorado,Hinsdale,843,362,99.27146929,37.821165,-107.338261
Colorado,Huerfano,6711,3137,2590.925367,37.687815,-104.959928
Colorado,Kiowa,13397,5611,9033.832461,38.387663,-102.756849
Colorado,Kit Carson,8270,3038,921.046457,39.30534,-102.603023
Colorado,La Plata,51334,21100,8142.090111,37.287367,-107.839718
Colorado,Larimer,299630,120295,64686.27397,40.658093,-105.486764
Colorado,Las Animas,15507,6384,4929.659798,37.318831,-104.04411
Colorado,Mesa,146723,58095,50275.44709,39.019421,-108.461893
Colorado,Mineral,37919,16056,9531.549497,37.549067,-107.003236
Colorado,Moffat,13795,5465,5820.087422,40.616358,-108.211099
Colorado,Montezuma,25535,10541,3679.764743,37.338025,-108.595786
Colorado,Montrose,41276,16484,11854.36421,38.407507,-108.266282
Colorado,Otero,82628,32193,26624.66295,37.88417,-103.72126
Colorado,Ouray,4436,2022,273.4790428,38.154731,-107.78848
Colorado,Park,60047,26369,25027.30984,39.118914,-105.717648
Colorado,Pitkin,17148,8152,1568.693885,39.217332,-106.915783
Colorado,Prowers,12551,4935,3063.590624,37.958181,-102.392161
Colorado,Pueblo,159063,62972,69282.07538,38.170658,-104.489892
Colorado,Rio Blanco,6666,2647,572.2272521,39.972622,-108.200716
Colorado,Rio Grande,11982,4779,2122.639871,37.485853,-106.453128
Colorado,Routt,23509,9892,4938.473474,40.483664,-106.987702
Colorado,Saguache,6108,2640,1235.460731,38.031651,-106.234666
Colorado,San Juan,161258,56866,62474.50532,37.781074,-107.670257
Colorado,San Miguel,36752,15432,15264.43873,38.009374,-108.427326
Colorado,Sedgwick,500744,194595,140107.4647,40.871568,-102.355358
Colorado,Summit,606099,247525,189173.0127,39.621023,-106.137555
Colorado,Teller,23350,9805,4217.33348,38.870023,-105.187339
Colorado,Weld,252825,89349,56377.18449,40.555961,-104.383666
Connecticut,Fairfield,1086941,399274,310459.5519,41.227413,-73.367061
Connecticut,Hartford,894014,350854,249153.9034,41.806053,-72.732916
Connecticut,Litchfield,189927,76640,42806.8714,41.791883,-73.235404
Connecticut,Middlesex,2489578,933784,651802.6308,41.433003,-72.52278
Connecticut,New Haven,862477,334502,259753.8362,41.349717,-72.900204
Connecticut,New London,274055,107057,114415.4622,41.472652,-72.108634
Connecticut,Tolland,152691,54477,55927.85049,41.858081,-72.340978
Connecticut,Windham,162941,64100,24449.64638,41.824999,-71.990702
Delaware,Kent,952095,364677,231277.0263,39.097088,-75.502982
Delaware,New Castle,538479,202651,134557.9857,39.575915,-75.644132
Delaware,Sussex,358497,138114,123919.9099,38.673227,-75.337024
District of Columbia,District of Columbia,601723,266707,12749.40619,38.904103,-77.017229
Florida,Alachua,247336,100516,45543.24967,29.67574,-82.357221
Florida,Baker,46700,17184,23508.47907,30.324442,-82.302284
Florida,Bay,276623,113041,61555.46418,30.238263,-85.63151
Florida,Bradford,91142,34800,8825.21204,29.952386,-82.166599
Florida,Brevard,543376,229692,233392.371,28.298304,-80.700331
Florida,Broward,1748066,686047,173938.9356,26.193535,-80.476683
Florida,Charlotte,172564,78479,81383.50664,26.868933,-81.941077
Florida,Citrus,141236,63304,64418.13254,28.84364,-82.52481
Florida,Collier,321520,133179,102656.5564,26.118786,-81.400955
Florida,DeSoto,196114,69193,83912.78236,27.190581,-81.806253
Florida,Dixie,16422,6316,1412.561742,29.580899,-83.195666
Florida,Duval,876045,346540,247427.4963,30.335245,-81.648113
Florida,Flagler,95696,39186,50779.6194,29.474912,-81.286305
Florida,Gadsden,46389,16952,1606.502821,30.578687,-84.612607
Florida,Gilchrist,16939,6121,75.04089016,29.723456,-82.795801
Florida,Glades,12884,4533,7259.667236,26.95481,-81.19082
Florida,Gulf,15863,5335,1264.080773,29.907257,-85.256537
Florida,Hamilton,1477502,595435,543068.1726,30.491226,-82.951069
Florida,Hardee,27731,8245,6876.61274,27.492846,-81.82158
Florida,Hendry,39140,12025,5667.596965,26.539967,-81.152114
Florida,Hernando,172778,71745,62059.04842,28.573043,-82.466227
Florida,Highlands,98786,42604,38317.50406,27.342627,-81.340921
Florida,Hillsborough,1629947,629496,521866.1077,27.906607,-82.349719
Florida,Holmes,81491,26834,16033.99931,30.866222,-85.812959
Florida,Indian River,138028,60176,59653.15298,27.700528,-80.574789
Florida,Leon,292288,117841,88193.53845,30.45931,-84.2778
Florida,Levy,40801,16404,4399.468293,29.284457,-82.783462
Florida,Liberty,149800,50575,36743.91904,30.259849,-84.86858
Florida,Manatee,322833,135729,85174.65876,27.481682,-82.368767
Florida,Martin,219725,93633,66754.26082,27.083604,-80.398201
Florida,Miami-Dade,2496435,867352,170703.965,25.61058,-80.499137
Florida,Nassau,1412846,477322,107803.8642,30.605926,-81.764929
Florida,Okaloosa,180822,72379,75489.20973,30.665851,-86.594187
Florida,Okeechobee,39996,14013,24008.87469,27.385592,-80.887388
Florida,Osceola,298675,102507,116893.1056,28.059027,-81.139312
Florida,Palm Beach,1320134,544227,259700.6238,26.649124,-80.448374
Florida,Pasco,464697,189612,183334.6706,28.307465,-82.464584
Florida,Pinellas,916542,415876,150075.5367,27.903122,-82.739518
Florida,Putnam,406546,154392,117612.3939,29.606006,-81.740894
Florida,St. Johns,190039,75338,55856.68474,29.890644,-81.383948
Florida,St. Lucie,277789,108523,124327.7293,27.379812,-80.443537
Florida,Santa Rosa,151372,56910,64922.27709,30.701838,-87.012762
Florida,Sarasota,379448,175746,136243.7759,27.184386,-82.365835
Florida,Seminole,456929,177965,140173.8289,28.690092,-81.131989
Florida,Suwannee,41551,15953,5069.438783,30.189244,-82.992754
Florida,Taylor,231395,89844,53612.12503,30.009908,-83.609483
Florida,Volusia,494593,208236,191622.0234,29.057769,-81.161792
Florida,Wakulla,30776,10490,387.6950854,30.140358,-84.375112
Florida,Walton,138811,51884,46655.46332,30.631211,-86.176614
Georgia,Appling,18236,6969,8491.172621,31.739712,-82.290103
Georgia,Atkinson,8375,2983,1919.599016,31.296806,-82.878151
Georgia,Bacon,11096,4214,372.7145112,31.55021,-82.451433
Georgia,Banks,18395,6700,0,34.351922,-83.498441
Georgia,Barrow,69367,23971,28597.98822,33.992009,-83.712303
Georgia,Bartow,100157,35782,29285.84328,34.240917,-84.838188
Georgia,Ben Hill,17634,6794,5224.056793,31.740775,-83.14719
Georgia,Berrien,176099,70497,40734.75666,31.288652,-83.22787
Georgia,Bleckley,13063,4660,2370.312741,32.435403,-83.331717
Georgia,Brantley,18411,6885,670.2597674,31.197334,-81.982978
Georgia,Brooks,23466,9099,3025.868155,30.822934,-83.581905
Georgia,Bryan,72649,27576,24585.94651,32.017969,-81.438543
Georgia,Bulloch,70217,25575,14588.47273,32.391711,-81.744021
Georgia,Burke,116196,45250,29830.6574,33.060181,-82.000164
Georgia,Butts,23655,7881,3915.855113,33.290355,-83.958221
Georgia,Camden,618152,231770,146428.7739,30.913347,-81.642001
Georgia,Candler,10998,4041,76.9671356,32.40395,-82.071266
Georgia,Catoosa,63942,24475,23719.14119,34.900218,-85.139386
Georgia,Charlton,12171,3927,590.7582395,30.779904,-82.139644
Georgia,Chatham,328633,128883,88137.4593,31.98041,-81.085196
Georgia,Chattahoochee,11267,2686,11029.36138,32.347445,-84.788021
Georgia,Chattooga,26015,9548,7916.642279,34.474178,-85.345289
Georgia,Clayton,277553,98232,103036.3072,33.542686,-84.355573
Georgia,Clinch,6798,2572,521.5113719,30.917653,-82.702614
Georgia,Cobb,688078,260056,276301.811,33.93994,-84.574166
Georgia,Colquitt,45498,16317,14080.64456,31.189707,-83.769773
Georgia,Cook,5217063,1975189,391280.9652,31.152516,-83.429445
Georgia,Coweta,127317,45673,55329.48174,33.352897,-84.762138
Georgia,Crisp,23439,9079,1655.953001,31.915149,-83.753531
Georgia,Dade,24516,9562,761.4032739,34.852424,-85.506201
Georgia,Dawson,69455,25466,19425.54893,34.442842,-84.173284
Georgia,Decatur,76757,29895,10697.43187,30.880655,-84.584144
Georgia,Dodge,167333,64467,25394.34456,32.164349,-83.167866
Georgia,Dooly,14918,5286,7682.654231,32.151995,-83.807167
Georgia,Dougherty,94565,36508,35806.45732,31.532588,-84.20904
Georgia,Early,11008,4228,632.8163816,31.324191,-84.906723
Georgia,Echols,4034,1329,194.3037528,30.7085,-82.836132
Georgia,Effingham,86492,31607,16855.41369,32.361711,-81.343337
Georgia,Emanuel,22598,8430,6952.157012,32.5911,-82.299763
Georgia,Evans,11000,4033,0,32.153083,-81.890153
Georgia,Fannin,57597,22336,12772.82355,34.866543,-84.317331
Georgia,Floyd,248374,97172,58293.35951,34.263692,-85.213685
Georgia,Forsyth,526181,200596,242414.8153,34.225143,-84.127435
Georgia,Gilmer,36985,14067,11754.78685,34.690506,-84.454624
Georgia,Glascock,3082,1162,2147.109952,33.227491,-82.606913
Georgia,Glynn,79626,31774,33306.74073,31.21271,-81.49645
Georgia,Gordon,55186,19715,13502.19936,34.509667,-84.873862
Georgia,Grady,77442,29310,16791.94223,30.875903,-84.245008
Georgia,Gwinnett,805321,268519,299173.9763,33.959146,-84.023087
Georgia,Habersham,43041,15472,8199.380621,34.634392,-83.525875
Georgia,Hall,241644,84259,77329.09209,34.317569,-83.8185
Georgia,Hancock,329065,133631,86312.08389,33.26922,-83.000465
Georgia,Haralson,28780,10757,4733.224791,33.795165,-85.220063
Georgia,Harris,4124483,1446978,854862.3292,32.731549,-84.912432
Georgia,Hart,43412,17218,1403.970666,34.348733,-82.96329
Georgia,Heard,11834,4400,757.3301818,33.291347,-85.137886
Georgia,Irwin,9538,3495,595.6313492,31.604306,-83.277037
Georgia,Jasper,288871,110746,59901.40556,33.318169,-83.690142
Georgia,Jeff Davis,17410,6723,6116.158859,31.811615,-82.636825
Georgia,Jenkins,8340,3192,326.9574445,32.794563,-81.971524
Georgia,Jones,148429,54673,26537.33317,33.020226,-83.562339
Georgia,Lanier,10078,3608,26.6421475,31.038197,-83.063164
Georgia,Laurens,114971,44166,20184.12882,32.39322,-82.926317
Georgia,Long,14464,5023,615.9326997,31.749563,-81.74287
Georgia,Lumpkin,29966,10989,21.46195954,34.56814,-83.998925
Georgia,McDuffie,21875,8289,172.9189494,33.479623,-82.478733
Georgia,McIntosh,37394,15738,5741.399073,31.488592,-81.37246
Georgia,Meriwether,21992,8522,659.4014207,33.029267,-84.667058
Georgia,Mitchell,65629,24734,13829.27877,31.228997,-84.192038
Georgia,Murray,61841,23147,10331.60442,34.797097,-84.73799
Georgia,Muscogee,189885,74081,67460.96952,32.510197,-84.874946
Georgia,Oconee,107081,42298,22129.89156,33.834125,-83.437728
Georgia,Oglethorpe,14899,5647,629.01823,33.866806,-83.074081
Georgia,Paulding,161938,55874,72202.04281,33.921026,-84.867162
Georgia,Peach,27695,9958,7629.780979,32.571324,-83.831978
Georgia,Pierce,866625,326749,290299.1109,31.353988,-82.210427
Georgia,Quitman,10736,4111,1862.15385,31.862948,-85.004801
Georgia,Rabun,16276,6780,96.01571519,34.883949,-83.404859
Georgia,Richmond,725172,264029,98748.53131,33.361487,-82.074998
Georgia,Rockdale,85215,30027,32314.9154,33.652081,-84.02637
Georgia,Schley,5010,1872,27.75569319,32.263444,-84.322708
Georgia,Screven,14593,5596,2966.08153,32.744751,-81.617585
Georgia,Spalding,64073,23565,16886.60126,33.262389,-84.286067
Georgia,Stephens,80853,32081,18256.34685,34.552914,-83.290216
Georgia,Stewart,19382,7248,842.4495696,32.073225,-84.834912
Georgia,Talbot,44647,18989,6069.873577,32.704603,-84.530029
Georgia,Taliaferro,1717,759,1172.41914,33.559319,-82.875272
Georgia,Tattnall,25520,8210,3342.452279,32.043768,-82.059208
Georgia,Telfair,16500,5543,5143.115984,31.913639,-82.931062
Georgia,Terrell,10299,3949,2492.657904,31.777191,-84.439446
Georgia,Thomas,53267,21060,21311.84895,30.86462,-83.919812
Georgia,Tift,40118,14836,4090.150211,31.457003,-83.525931
Georgia,Toombs,27223,10375,3169.631619,32.117812,-82.330626
Georgia,Towns,10471,4510,1.416200713,34.902529,-83.732264
Georgia,Treutlen,6885,2543,2943.987767,32.409586,-82.570882
Georgia,Troup,67044,24828,7243.368867,33.034482,-85.02836
Georgia,Turner,17277,6791,1774.010265,31.7248,-83.620319
Georgia,Twiggs,9023,3634,14.9415841,32.665847,-83.425879
Georgia,Upson,27153,10716,6751.89373,32.881837,-84.292283
Georgia,Ware,36312,13654,11267.5777,31.050881,-82.421507
Georgia,Warren,800645,306703,219646.834,33.419169,-82.688012
Georgia,Wayne,2453456,948811,371620.7616,31.547845,-81.912376
Georgia,Webster,155061,61026,33342.8505,32.046691,-84.553828
Georgia,Wheeler,15090,5334,3245.710747,32.105258,-82.733849
Georgia,Whitfield,102599,35180,26573.75322,34.801726,-84.968541
Georgia,Wilkes,79933,32623,3986.082182,33.779031,-82.747921
Georgia,Wilkinson,19441,7121,3661.863061,32.804266,-83.175512
Georgia,Worth,31448,12330,1482.697662,31.551773,-83.84996
Hawaii,Hawaii,185079,67096,63834.5868,19.597764,-155.502443
Hawaii,Honolulu,953207,311047,236639.1966,21.461365,-158.201974
Hawaii,Kalawao,90,69,0,21.218764,-156.97401
Hawaii,Kauai,67091,23240,20001.56961,22.012038,-159.705965
Hawaii,Maui,154834,53886,49744.88197,20.855931,-156.60155
Idaho,Ada,392365,148445,107905.0393,43.451477,-116.244376
Idaho,Bannock,82839,30682,27366.73,42.692921,-112.228982
Idaho,Bear Lake,5986,2281,1549.173696,42.285892,-111.327517
Idaho,Benewah,9285,3837,2077.900727,47.218451,-116.633541
Idaho,Bingham,45607,14999,14710.77268,43.216357,-112.399206
Idaho,Blaine,40288,15335,11537.93576,43.394192,-113.955371
Idaho,Boise,7028,2974,4478.643294,43.987275,-115.71511
Idaho,Bonner,40877,17100,6822.492843,48.324628,-116.627452
Idaho,Bonneville,104234,36629,41419.83939,43.395171,-111.621878
Idaho,Boundary,10972,4421,1598.585824,48.773133,-116.524673
Idaho,Camas,1117,487,1116.999994,43.502733,-114.772066
Idaho,Canyon,188923,63604,49984.10493,43.623051,-116.708527
Idaho,Caribou,6963,2606,1693.712102,42.786072,-111.544273
Idaho,Cassia,22952,7666,4533.686671,42.282313,-113.626328
Idaho,Clearwater,17456,7187,3985.03995,46.67257,-115.6535
Idaho,Gem,16719,6495,5415.88812,44.061473,-116.398784
Idaho,Gooding,15464,5531,125.4010593,42.973185,-114.82142
Idaho,Idaho,16267,6834,5576.177775,45.849644,-115.467337
Idaho,Jerome,22374,7540,5502.725971,42.691395,-114.262086
Idaho,Kootenai,138494,54200,40491.69011,47.677113,-116.694918
Idaho,Latah,37244,14708,7388.88286,46.81892,-116.730974
Idaho,Lemhi,7936,3576,1995.146503,44.928506,-113.887042
Idaho,Lewis,158977,62929,34289.47516,46.236328,-116.42376
Idaho,Minidoka,20069,7170,6519.703842,42.857211,-113.63984
Idaho,Nez Perce,39265,16241,9562.87476,46.333791,-116.760909
Idaho,Oneida,275162,110576,44302.81585,42.183895,-112.520449
Idaho,Owyhee,11526,4076,2126.820027,42.572851,-116.18969
Idaho,Payette,22623,8262,5663.940068,44.00243,-116.750238
Idaho,Power,7817,2641,986.9935041,42.694126,-112.844407
Idaho,Shoshone,12765,5605,1857.070858,47.347694,-115.885092
Idaho,Teton,37537,15074,6542.810877,43.760994,-111.211765
Idaho,Twin Falls,77230,28760,10721.66511,42.352309,-114.665639
Idaho,Valley,21491,9513,5858.390321,44.85596,-115.618061
Illinois,Alexander,45436,17754,9361.592004,37.183658,-89.349516
Illinois,Bond,17768,6427,2999.783171,38.885924,-89.436592
Illinois,Brown,428691,170287,102651.1256,39.962069,-90.750309
Illinois,Bureau,34978,14262,13351.59003,41.401304,-89.528377
Illinois,Cass,452385,181836,92040.23816,39.969202,-90.245704
Illinois,Champaign,241178,95994,46591.82775,40.13898,-88.196996
Illinois,Christian,186177,69276,41559.68038,39.545524,-89.279593
Illinois,Clinton,389905,150351,83688.04595,38.606295,-89.426228
Illinois,Coles,53873,21463,14803.45362,39.51368,-88.220782
Illinois,Cumberland,1077418,420675,295081.4974,39.273121,-88.240619
Illinois,De Witt,16561,6811,592.1526941,40.181499,-88.901853
Illinois,DuPage,916924,337132,207216.4137,41.852058,-88.086038
Illinois,Edgar,18576,7839,7711.982662,39.679037,-87.74711
Illinois,Edwards,11760,4981,2367.266693,38.417095,-88.047941
Illinois,Ford,47929,16821,10869.40482,40.596539,-88.224588
Illinois,Gallatin,103691,42113,22105.48334,37.768677,-88.227964
Illinois,Grundy,86480,33286,20081.77857,41.29241,-88.401054
Illinois,Hardin,240116,91931,63162.07068,37.517852,-88.266148
Illinois,Henderson,266622,109546,46082.71746,40.814471,-90.941246
Illinois,Iroquois,29718,11956,5149.565387,40.748867,-87.833601
Illinois,Jersey,22985,8828,4054.332611,39.080192,-90.361365
Illinois,Jo Daviess,22678,9753,4378.087889,42.362391,-90.21147
Illinois,Kane,522394,173379,112898.8591,41.939594,-88.42804
Illinois,Kankakee,113449,41511,17105.88833,41.13951,-87.861117
Illinois,Kendall,148146,50639,36381.07584,41.58814,-88.430626
Illinois,Knox,672676,273481,221783.7012,40.930941,-90.213761
Illinois,La Salle,135700,52746,33306.8737,28.351098,-99.096774
Illinois,Livingston,438050,162265,105765.0421,40.894376,-88.552852
Illinois,McDonough,32612,13057,6813.277179,40.455808,-90.678954
Illinois,McHenry,314155,111576,138237.8397,42.324298,-88.452245
Illinois,McLean,188065,72834,60617.16122,40.494559,-88.844539
Illinois,Macoupin,47765,19381,8797.212351,39.2659,-89.926344
Illinois,Mason,152896,61785,24841.54348,40.236993,-89.913575
Illinois,Massac,15429,6362,849.0194961,37.216119,-88.705658
Illinois,Menard,14947,6134,2089.750026,40.022569,-89.794133
Illinois,Mercer,636203,242333,160601.8821,41.204791,-90.741433
Illinois,Moultrie,14846,5758,374.4269289,39.636896,-88.625726
Illinois,Ogle,53497,20856,7907.285449,42.041884,-89.320176
Illinois,Peoria,186494,75793,46696.60674,40.785995,-89.767106
Illinois,Piatt,16729,6782,1530.699415,40.009056,-88.592328
Illinois,Richland,590025,226559,208328.9461,38.711552,-88.085698
Illinois,Rock Island,147546,61303,18891.59662,41.468404,-90.572203
Illinois,Sangamon,197465,82986,42405.11405,39.757258,-89.662032
Illinois,Schuyler,30318,12366,5065.470725,40.156905,-90.613464
Illinois,Stark,405779,163599,110459.1769,41.096908,-89.797411
Illinois,Stephenson,47711,19845,3306.72899,42.349726,-89.665994
Illinois,Tazewell,180472,72595,64801.32889,40.508074,-89.51626
Illinois,Vermilion,139624,54544,15839.39509,40.186754,-87.726778
Illinois,Wabash,44835,17789,6080.873999,38.445821,-87.839167
Illinois,Whiteside,58498,23740,14473.56865,41.750571,-89.910957
Illinois,Will,677560,225256,276630.4679,41.448474,-87.978456
Illinois,Williamson,672218,244913,297909.0251,37.730353,-88.930018
Illinois,Winnebago,473126,187973,131187.3691,42.337396,-89.161205
Illinois,Woodford,63603,24082,23151.69933,40.789789,-89.210607
Indiana,Allen,520751,200309,157152.9572,41.091855,-85.07223
Indiana,Bartholomew,76794,29860,26060.62657,39.205843,-85.897999
Indiana,Blackford,12766,5236,151.8270074,40.472672,-85.32373
Indiana,Daviess,136737,53162,23080.8232,38.696089,-87.076944
Indiana,Dearborn,50047,18743,21325.52626,39.14832,-84.973498
Indiana,Delaware,958095,362029,212465.514,40.227543,-85.399262
Indiana,Dubois,41889,16133,8116.889198,38.373344,-86.873385
Indiana,Elkhart,197559,70244,60041.08921,41.600693,-85.863986
Indiana,Fountain,17240,6935,1423.695736,40.121237,-87.234872
Indiana,Gibson,83186,32945,12360.77021,38.317398,-87.580523
Indiana,Harrison,419794,163249,95803.28037,38.18644,-86.103681
Indiana,Hendricks,145448,52368,66110.0413,39.768963,-86.509908
Indiana,Huntington,37124,14218,10426.38382,40.826394,-85.478597
Indiana,Jay,21253,8133,4636.563197,40.434972,-85.00338
Indiana,Jennings,28525,10680,7120.645721,38.996229,-85.628103
Indiana,Kosciusko,77358,29197,14576.69049,41.244293,-85.861575
Indiana,LaGrange,37128,11598,1920.452426,41.642468,-85.426302
Indiana,LaPorte,111467,42331,32781.88931,41.549013,-86.744739
Indiana,Miami,172196,66534,27166.97202,40.772881,-86.044258
Indiana,Noble,73742,26821,14486.62401,41.40468,-85.417271
Indiana,Ohio,74413,30567,11881.99768,38.940527,-84.964299
Indiana,Owen,32416,12782,1273.072062,39.317339,-86.838845
Indiana,Parke,17339,6222,2971.656134,39.77425,-87.19695
Indiana,Porter,164343,61998,66335.84184,41.509915,-87.071313
Indiana,Posey,25910,10171,8195.681321,38.027614,-87.868653
Indiana,Ripley,42918,16426,4173.02254,39.100226,-85.260494
Indiana,Rush,20699,8278,1266.352822,39.622357,-85.466403
Indiana,St. Joseph,328226,126313,94682.37278,41.617699,-86.288159
Indiana,Spencer,38013,14247,2.095516111,38.009697,-87.010375
Indiana,Starke,23363,9038,477.7863687,41.284478,-86.644636
Indiana,Steuben,133175,53654,23944.11867,41.643467,-85.002405
Indiana,Sullivan,312729,127903,73612.41948,39.089225,-87.415843
Indiana,Switzerland,10613,4034,487.6244552,38.825854,-85.029681
Indiana,Tippecanoe,172780,65532,47127.77022,40.389133,-86.893554
Indiana,Tipton,77017,27993,5553.325767,40.310229,-86.056207
Indiana,Vanderburgh,179703,74454,50924.50184,38.02007,-87.586166
Indiana,Vermillion,16212,6619,940.7146772,39.854045,-87.462071
Indiana,Vigo,107848,41361,27386.35531,39.429143,-87.390375
Indiana,Warrick,59689,22505,18157.54037,38.097728,-87.272049
Indiana,Wells,31843,12723,6820.484298,40.735273,-85.212974
Indiana,Whitley,68929,26576,3960.794964,41.136426,-85.501892
Iowa,Adair,74628,28610,10642.79996,41.328528,-94.478164
Iowa,Allamakee,14330,5845,1481.758716,43.274964,-91.382751
Iowa,Appanoose,12887,5627,2029.037351,40.744296,-92.873061
Iowa,Audubon,6119,2617,462.2703514,41.679178,-94.904312
Iowa,Black Hawk,131090,52470,41447.28575,42.471541,-92.308033
Iowa,Bremer,24276,9385,2723.907009,42.780895,-92.327356
Iowa,Buchanan,134257,52638,24963.93887,42.470328,-91.838666
Iowa,Buena Vista,26910,10125,8963.350181,42.741522,-95.141432
Iowa,Cedar,41333,16888,8292.859922,41.77236,-91.132611
Iowa,Cerro Gordo,44151,19350,9439.504358,43.074975,-93.250965
Iowa,Chickasaw,29831,11843,3781.562949,43.059741,-92.31721
Iowa,Davis,315232,96746,114977.7337,40.748089,-92.410345
Iowa,Des Moines,40325,17003,12163.79354,40.915339,-91.186925
Iowa,Dickinson,62589,26986,9202.478104,43.389611,-95.196057
Iowa,Dubuque,93653,36815,23632.32965,42.463481,-90.878771
Iowa,Emmet,42996,17837,11291.1117,43.377984,-94.66937
Iowa,Guthrie,10954,4544,1234.581498,41.683573,-94.501272
Iowa,Ida,7089,3052,75.2501586,42.39186,-95.507421
Iowa,Iowa,40042,16224,8405.913443,41.683918,-92.059123
Iowa,Keokuk,10511,4408,2671.368299,41.331182,-92.167721
Iowa,Kossuth,15543,6697,8407.098706,43.212478,-94.213983
Iowa,Linn,350315,140657,108770.1942,42.077951,-91.597674
Iowa,Louisa,44540,17290,908.5572289,41.218211,-91.256994
Iowa,Lucas,450713,183956,71738.60063,41.033344,-93.331467
Iowa,Lyon,131422,51067,36257.13044,43.38358,-96.207201
Iowa,Mahaska,22381,8975,5755.404442,41.330797,-92.636366
Iowa,Mills,19995,7580,3380.972315,41.033703,-95.619101
Iowa,Monona,9243,4050,1510.594712,42.049432,-95.956566
Iowa,Muscatine,42745,16412,4735.608463,41.483776,-91.118699
Iowa,O'Brien,14398,6069,4563.127929,43.083746,-95.625624
Iowa,Page,39974,16139,1965.011516,40.73909,-95.14429
Iowa,Palo Alto,9421,3994,2252.814054,43.075337,-94.669055
Iowa,Plymouth,519905,191001,207587.7084,42.737585,-96.215864
Iowa,Pocahontas,16029,6991,5254.580305,42.734033,-94.678279
Iowa,Pottawattamie,93158,36775,30878.9417,41.340184,-95.544905
Iowa,Poweshiek,18914,7555,4025.682524,41.684526,-92.522882
Iowa,Ringgold,5131,2047,560.2521003,40.735334,-94.244251
Iowa,Sac,10350,4482,3735.675227,42.387526,-95.105224
Iowa,Sioux,39168,13319,3029.640141,43.082646,-96.17801
Iowa,Story,89542,34736,21514.22335,42.037538,-93.466093
Iowa,Tama,17767,6947,3925.632278,42.074848,-92.529411
Iowa,Wapello,35625,14552,17958.33964,41.031263,-92.409482
Iowa,Winneshiek,21056,7997,4417.215708,43.292989,-91.850788
Iowa,Woodbury,102172,39052,27799.78879,42.39322,-96.053296
Iowa,Wright,156744,57597,34242.5927,42.733007,-93.734735
Kansas,Anderson,350236,133929,104907.8296,38.215114,-95.292046
Kansas,Atchison,22609,8739,5337.796388,39.532544,-95.313397
Kansas,Barber,4861,2139,544.5189815,37.222906,-98.685052
Kansas,Barton,40076,16212,12827.10575,38.481239,-98.767837
Kansas,Bourbon,35158,13962,7934.064833,37.8561,-94.850928
Kansas,Chase,6756,2831,3782.277713,38.299475,-96.594029
Kansas,Chautauqua,138574,55856,23019.75577,37.154259,-96.245396
Kansas,Cloud,9533,3910,3498.141696,39.487329,-97.64139
Kansas,Coffey,8601,3497,3683.387968,38.23645,-95.729137
Kansas,Comanche,139963,51386,42132.35566,37.181442,-99.251293
Kansas,Cowley,36311,13940,15650.74162,37.234507,-96.837247
Kansas,Doniphan,7945,3136,4197.853443,39.788502,-95.147225
Kansas,Elk,34828,14977,8379.455154,37.456026,-96.244642
Kansas,Ellis,182213,64193,58906.21126,38.914597,-99.317313
Kansas,Ellsworth,6497,2463,1952.875864,38.700845,-98.205355
Kansas,Finney,36776,12359,9013.958654,38.049808,-100.739967
Kansas,Geary,34362,12690,15216.62576,39.002156,-96.768037
Kansas,Gove,2695,1154,1118.70812,38.917239,-100.48736
Kansas,Gray,28541,10596,7358.955277,37.744513,-100.451716
Kansas,Greeley,3785,1594,3784.065576,38.480404,-101.80597
Kansas,Greenwood,76350,30535,12944.70439,37.879347,-96.241732
Kansas,Harper,9719,4072,3469.076483,37.188184,-98.06659
Kansas,Harvey,34684,13411,4436.695708,38.050144,-97.436706
Kansas,Haskell,22924,8851,11351.10183,37.554979,-100.879952
Kansas,Hodgeman,1916,803,611.6738761,38.087493,-99.898407
Kansas,Jewell,3077,1450,826.016113,39.777002,-98.222618
Kansas,Kearny,3977,1400,3977,37.994461,-101.308136
Kansas,Kingman,7858,3227,3333.590519,37.552951,-98.144529
Kansas,Labette,21607,8822,5213.075394,37.191468,-95.297473
Kansas,Lane,353465,146765,66142.76419,38.481286,-100.466185
Kansas,Leavenworth,76227,26447,29178.96604,39.189511,-95.038977
Kansas,McPherson,32178,12984,10482.04487,38.395812,-97.647489
Kansas,Meade,58611,22087,12953.5267,37.243886,-100.360094
Kansas,Morris,511133,188314,200775.4096,38.688204,-96.651448
Kansas,Morton,30704,12539,9196.271754,37.185249,-101.809516
Kansas,Nemaha,17426,7067,2644.750643,39.791043,-96.005381
Kansas,Neosho,16512,6645,1668.323253,37.564283,-95.315683
Kansas,Ness,3107,1365,833.4184283,38.480437,-99.908745
Kansas,Norton,9629,3913,1580.072417,39.783867,-99.899235
Kansas,Osage,77645,30085,22460.0995,38.648409,-95.707596
Kansas,Osborne,3858,1742,891.7577861,39.348261,-98.767942
Kansas,Ottawa,343168,126079,106446.6229,39.137963,-97.654802
Kansas,Pawnee,26323,10381,3869.335229,38.181477,-99.234772
Kansas,Pottawatomie,91046,33789,10581.13588,39.382187,-96.337113
Kansas,Pratt,9656,3956,3182.930429,37.647594,-98.74012
Kansas,Rawlins,2519,1176,715.0675463,39.786198,-101.076738
Kansas,Reno,64511,25794,16412.40618,37.948185,-98.078346
Kansas,Republic,4980,2274,1274.504407,39.82891,-97.650921
Kansas,Rice,74225,26221,13824.37496,38.347178,-98.201415
Kansas,Riley,71115,25796,37019.88449,39.291211,-96.727489
Kansas,Rooks,5181,2238,750.2111379,39.346006,-99.324492
Kansas,Seward,39702,13726,3971.907998,37.180623,-100.854932
Kansas,Shawnee,177934,72600,29940.85982,39.041805,-95.755664
Kansas,Sheridan,41846,18071,17969.59187,39.350547,-100.441228
Kansas,Sherman,13961,5858,9524.486485,39.351352,-101.719859
Kansas,Smith,249224,94434,48232.27256,39.78466,-98.785429
Kansas,Stafford,133398,43676,44529.18399,38.03563,-98.719889
Kansas,Stanton,8364,3212,2766.954555,37.565932,-101.789383
Kansas,Stevens,58981,23086,19384.40309,37.200969,-101.317577
Kansas,Sumner,184777,70429,62573.56072,37.236662,-97.493352
Kansas,Trego,3001,1358,214.8515795,38.921302,-99.865423
Kansas,Wabaunsee,7053,2737,2946.919377,38.955154,-96.201262
Kansas,Wallace,1485,620,1485.000005,38.926626,-101.771103
Kansas,Wichita,133734,49907,46485.71491,38.481922,-101.347434
Kansas,Wilson,247554,93467,47916.10127,37.558515,-95.745175
Kansas,Woodson,3309,1524,613.5003846,37.888193,-95.758469
Kansas,Wyandotte,157505,58399,41097.32568,39.115384,-94.763087
Kentucky,Ballard,8249,3397,416.4808678,37.051323,-89.010367
Kentucky,Barren,42173,16999,4262.649854,36.963671,-85.925162
Kentucky,Bath,16322,6749,1066.275605,38.152249,-83.737641
Kentucky,Bell,338926,125822,137637.2373,36.72268,-83.681046
Kentucky,Boyd,51641,20729,14930.55765,38.360004,-82.681406
Kentucky,Boyle,28432,11075,4751.877336,37.618104,-84.868352
Kentucky,Bracken,8488,3317,47.87093155,38.680365,-84.115235
Kentucky,Breathitt,13878,5494,3484.119594,37.506632,-83.28304
Kentucky,Breckinridge,20059,7827,1809.962047,37.777988,-86.432919
Kentucky,Bullitt,74319,27673,34965.63371,37.969928,-85.702641
Kentucky,Caldwell,153635,58663,38106.83865,37.148642,-87.870509
Kentucky,Calloway,37191,15530,5179.498079,36.620978,-88.274086
Kentucky,Campbell,233493,92730,59341.76727,38.946981,-84.379583
Kentucky,Carlisle,5104,2116,115.470763,36.857726,-88.975757
Kentucky,Carter,140126,56683,44479.2841,38.309549,-83.048796
Kentucky,Casey,15955,6351,703.5012842,37.321962,-84.92822
Kentucky,Edmonson,12161,4857,306.7849305,37.227514,-86.218015
Kentucky,Elliott,7852,2773,4.531888127,38.115438,-83.097209
Kentucky,Estill,14672,5984,39.71703265,37.692449,-83.963983
Kentucky,Fleming,14348,5729,838.4817284,38.368431,-83.706152
Kentucky,Garrard,16912,6668,0.704818096,37.630162,-84.545856
Kentucky,Graves,37121,14978,5437.630759,36.723344,-88.649897
Kentucky,Grayson,162156,63833,32483.58411,37.458577,-86.344011
Kentucky,Green,48100,19467,8121.063074,37.269637,-85.561403
Kentucky,Greenup,36910,14671,7790.190349,38.563562,-82.93382
Kentucky,Harlan,32701,13308,2111.096248,36.859223,-83.221497
Kentucky,Hickman,29592,11004,2775.948616,36.675896,-88.972084
Kentucky,Hopkins,82081,32288,22416.81193,37.31107,-87.542196
Kentucky,Jessamine,48586,17642,12165.26013,37.873291,-84.58396
Kentucky,Kenton,159720,62768,54393.56962,38.930503,-84.533438
Kentucky,Knott,16346,6414,138.5769734,37.359724,-82.945724
Kentucky,Larue,14193,5615,2701.130718,37.544462,-85.696841
Kentucky,Laurel,58849,23014,13024.92479,37.113268,-84.119395
Kentucky,Leslie,11310,4555,350.8281018,37.087846,-83.388617
Kentucky,Letcher,24519,10014,0,37.118536,-82.861251
Kentucky,McCracken,65565,28227,21020.53588,37.053683,-88.712366
Kentucky,McCreary,18306,6477,359.6566985,36.731136,-84.491052
Kentucky,Magoffin,13333,5309,231.7288413,37.698953,-83.069716
Kentucky,Menifee,6306,2440,94.33539604,37.950665,-83.597515
Kentucky,Metcalfe,10099,4055,78.77931826,36.992515,-85.633598
Kentucky,Muhlenberg,31499,12052,4066.363473,37.213816,-87.134092
Kentucky,Nelson,61583,24696,5837.193725,37.803188,-85.465955
Kentucky,Nicholas,33368,13747,1303.995993,38.337132,-84.025554
Kentucky,Oldham,62368,20122,24697.33256,38.400127,-85.456152
Kentucky,Owsley,4755,1914,33.37490561,37.423614,-83.691628
Kentucky,Pendleton,22572,8779,3101.692309,38.696284,-84.351944
Kentucky,Powell,19640,7300,1346.103447,37.800629,-83.820015
Kentucky,Robertson,85187,31640,12886.48286,38.513473,-84.06423
Kentucky,Rockcastle,17056,6750,44.94160725,37.36105,-84.314368
Kentucky,Rowan,161761,62004,30737.52925,38.20425,-83.42807
Kentucky,Simpson,44830,17083,6458.901338,36.740947,-86.581746
Kentucky,Todd,46967,17183,10375.17255,36.840338,-87.183642
Kentucky,Trigg,14339,5883,1179.215689,36.807681,-87.858652
Kentucky,Trimble,8809,3420,247.5463859,38.62004,-85.351208
Kentucky,Wolfe,7355,3065,124.6917658,37.743774,-83.495068
Louisiana,Acadia,61773,22841,4748.287571,30.291497,-92.411037
Louisiana,Ascension,107215,37790,48058.57075,30.206444,-90.912502
Louisiana,Assumption,23421,8736,4706.302308,29.898853,-91.052465
Louisiana,Avoyelles,42073,15432,6884.73498,31.088503,-91.983275
Louisiana,Beauregard,35654,13159,20089.3109,30.645018,-93.340253
Louisiana,Bienville,14353,5838,5122.978121,32.340952,-93.041151
Louisiana,Bossier,116979,45215,24137.66505,32.695851,-93.616132
Louisiana,Caddo,284569,112784,101564.0728,32.577195,-93.882423
Louisiana,Calcasieu,192768,73996,69917.69534,30.229559,-93.358015
Louisiana,Cameron,418144,124479,138180.5391,29.871812,-93.164948
Louisiana,Catahoula,10407,3834,2487.871749,31.666517,-91.846703
Louisiana,Claiborne,59012,22310,5418.413267,32.827043,-92.989767
Louisiana,Concordia,20822,7613,4575.502549,31.469805,-91.626314
Louisiana,De Soto,26656,10562,6572.858381,32.059248,-93.740797
Louisiana,East Baton Rouge,440171,172057,124695.9854,30.54393,-91.093131
Louisiana,East Carroll,7759,2552,2611.397208,32.73017,-91.234141
Louisiana,East Feliciana,20267,7022,266.1419098,30.839784,-91.043434
Louisiana,Evangeline,33984,12829,7370.811126,30.720693,-92.404086
Louisiana,Iberia,73240,26778,13874.01536,30.007127,-91.976784
Louisiana,Iberville,33387,11072,1967.868076,30.270628,-91.365848
Louisiana,Jefferson Davis,44081,16748,7032.350636,30.269529,-92.816221
Louisiana,Lafourche,96318,35486,26435.53918,29.491992,-90.394849
Louisiana,Morehouse,27979,10853,6280.107082,32.820008,-91.800399
Louisiana,Natchitoches,39566,15614,12990.98174,31.732551,-93.082611
Louisiana,Orleans,413943,169597,68600.86074,30.05342,-89.934502
Louisiana,Plaquemines,23042,8077,12651.878,29.402337,-89.298489
Louisiana,Pointe Coupee,22802,9082,7858.981001,30.708319,-91.604621
Louisiana,Rapides,131613,50401,44537.88423,31.193204,-92.535953
Louisiana,Red River,21951,8941,8845.697385,32.101213,-93.34905
Louisiana,Sabine,35067,14360,8968.423506,31.560402,-93.559579
Louisiana,St. Bernard,35897,13221,17710.24147,29.91811,-89.263494
Louisiana,St. Charles,413265,152831,189507.3079,29.905722,-90.357855
Louisiana,St. Helena,11203,4333,662.7704904,30.822539,-90.708307
Louisiana,St. James,22102,7717,8403.643896,30.024777,-90.793956
Louisiana,St. John the Baptist,45924,15965,17228.85183,30.147307,-90.485674
Louisiana,St. Landry,83384,31857,16507.54178,30.583441,-91.989274
Louisiana,St. Martin,52160,19216,8019.809822,30.121433,-91.611481
Louisiana,St. Mary,54650,20457,17520.01375,29.629349,-91.463804
Louisiana,St. Tammany,233740,87521,73897.32598,30.410022,-89.951962
Louisiana,Tangipahoa,121097,45135,49784.07142,30.62158,-90.406633
Louisiana,Tensas,5252,2172,1283.989252,32.001489,-91.342576
Louisiana,Terrebonne,111860,40091,32289.36088,29.33413,-90.843674
Louisiana,Vernon,103266,39177,38421.29102,31.110563,-93.18152
Louisiana,West Baton Rouge,23788,8688,4876.59968,30.464052,-91.309808
Louisiana,West Carroll,11604,4452,564.7614681,32.79248,-91.451998
Louisiana,West Feliciana,15625,3971,6576.247068,30.872701,-91.421008
Louisiana,Winn,15313,5469,2522.433158,31.941187,-92.641269
Maine,Androscoggin,107702,44315,9956.969145,44.167681,-70.207435
Maine,Aroostook,71870,30961,8397.099347,46.709193,-68.612409
Maine,Kennebec,122151,51128,6656.430494,44.417012,-69.765764
Maine,Oxford,57833,24300,7755.197208,44.4945,-70.734421
Maine,Penobscot,153923,62966,20824.30664,45.409279,-68.666598
Maine,Piscataquis,17535,7825,777.3144068,45.915639,-69.102231
Maine,Sagadahoc,35293,15088,3922.669671,43.916645,-69.844326
Maine,Somerset,479884,179564,145059.4975,45.503646,-69.95611
Maine,Waldo,38786,16431,5554.970303,44.505834,-69.138952
Maine,York,937305,364815,258566.0445,43.426019,-70.668425
Maryland,Allegany,124033,47385,22512.09251,39.612313,-78.703104
Maryland,Anne Arundel,537656,199378,204078.2171,38.991619,-76.560874
Maryland,Baltimore,805029,316715,143563.9206,39.300032,-76.610476
Maryland,Calvert,88737,30873,34916.18785,38.522611,-76.529493
Maryland,Caroline,61611,22614,4408.396862,38.871531,-75.831662
Maryland,Cecil,101108,36867,28479.23145,39.562354,-75.941585
Maryland,Charles,146551,51214,54058.82974,38.472853,-77.015427
Maryland,Dorchester,169173,63781,42192.10818,38.429196,-76.047433
Maryland,Frederick,311690,113664,75884.36224,39.470214,-77.397628
Maryland,Garrett,30097,12057,4538.212705,39.547299,-79.274619
Maryland,Harford,244826,90218,66999.29357,39.537429,-76.299789
Maryland,Prince George's,863420,304042,212757.1393,38.82588,-76.847272
Maryland,Queen Anne's,47798,18016,11215.37462,39.040693,-76.082405
Maryland,St. Mary's,105151,37604,23439.4734,38.220289,-76.530384
Maryland,Wicomico,98733,37220,28636.5105,38.367375,-75.632089
Maryland,Worcester,850006,325309,286207.6011,38.222133,-75.309931
Maryland,Baltimore City,620961,249903,13718.51952,39.443167,-76.616569
Massachusetts,Barnstable,215888,95755,107228.56,41.799014,-70.21188
Massachusetts,Berkshire,131219,56091,40911.51319,42.375314,-73.213948
Massachusetts,Bristol,615995,240039,179372.8157,41.747624,-71.088963
Massachusetts,Dukes,16535,7368,5402.338321,41.38097,-70.701499
Massachusetts,Essex,1583955,593265,298630.5961,42.642711,-70.865107
Massachusetts,Hampden,463490,179927,115569.4345,42.136198,-72.635648
Massachusetts,Hampshire,182044,68297,82289.2165,42.339459,-72.663694
Massachusetts,Nantucket,10172,4229,1386.055047,41.305878,-70.14191
Massachusetts,Norfolk,913653,344399,289969.8858,42.171751,-71.181116
Massachusetts,Suffolk,2299958,823557,434148.4029,42.338551,-71.018253
Michigan,Alcona,10942,5089,1164.06256,44.682535,-82.834078
Michigan,Alger,9601,3898,3341.016709,47.080077,-86.564108
Michigan,Allegan,111408,42018,20064.58579,42.595787,-86.634745
Michigan,Alpena,29598,12791,2829.494696,44.894954,-83.426574
Michigan,Antrim,23580,9890,32.76018218,45.005455,-85.175639
Michigan,Arenac,15899,6701,4582.233906,44.036833,-83.740675
Michigan,Baraga,8860,3444,1452.29932,46.695859,-88.36181
Michigan,Barry,94770,36608,7001.834341,42.582811,-85.31455
Michigan,Benzie,17525,7298,0,44.648621,-86.494326
Michigan,Branch,45248,16419,4135.072275,41.918455,-85.066885
Michigan,Charlevoix,25949,10882,561.8224686,45.513164,-85.450392
Michigan,Cheboygan,26152,11133,3647.96969,45.47612,-84.495271
Michigan,Chippewa,113376,43980,19722.09666,46.321819,-84.52063
Michigan,Clare,30926,12966,588.0283726,43.991137,-84.838325
Michigan,Eaton,107759,43494,33314.90617,42.589614,-84.846524
Michigan,Genesee,485869,192930,160807.4041,43.021077,-83.706372
Michigan,Gladwin,25692,10753,1835.117589,43.98975,-84.389816
Michigan,Gogebic,16427,7037,2195.07207,46.461513,-89.806863
Michigan,Grand Traverse,86986,35328,15949.71664,44.718688,-85.553848
Michigan,Gratiot,42476,14852,15152.10072,43.292326,-84.60469
Michigan,Hillsdale,46688,17792,778.9055844,41.927461,-84.637479
Michigan,Houghton,36628,14232,3816.050963,46.998431,-88.651908
Michigan,Huron,92744,37168,16110.58215,43.907616,-82.857045
Michigan,Ingham,280895,111162,88382.99228,42.603534,-84.373811
Michigan,Ionia,63905,22144,12184.58848,42.94465,-85.073766
Michigan,Iosco,25887,11757,4110.217659,44.329482,-82.849444
Michigan,Iron,74526,27799,25796.81582,46.170254,-88.540526
Michigan,Isabella,70311,25586,7100.919872,43.645233,-84.839424
Michigan,Kalamazoo,250331,100610,80895.32104,42.246266,-85.532854
Michigan,Kalkaska,17153,6962,874.8190711,44.678881,-85.088992
Michigan,Keweenaw,2156,1013,625.5303845,47.681974,-88.148797
Michigan,Lapeer,88319,32776,6588.542123,43.088633,-83.224325
Michigan,Leelanau,21708,9255,0,45.146182,-86.051574
Michigan,Lenawee,99892,37514,26120.37609,41.896019,-84.074307
Michigan,Luce,6631,2412,1889.77692,46.940602,-85.582368
Michigan,Mackinac,11113,5024,3328.894657,46.167868,-85.303762
Michigan,Macomb,840978,331667,200937.3388,42.671493,-82.910856
Michigan,Manistee,24733,10308,2491.479896,44.350385,-86.602967
Michigan,Marquette,82481,34109,11051.44159,46.656596,-87.584028
Michigan,Mecosta,42798,16101,7836.066763,43.635295,-85.332751
Michigan,Menominee,28261,11792,10271.20643,45.538237,-87.492949
Michigan,Midland,220501,84282,53398.041,43.648203,-84.379414
Michigan,Missaukee,14849,5843,663.7505881,44.325424,-85.085471
Michigan,Montcalm,63342,23432,1941.779899,43.312782,-85.149468
Michigan,Montmorency,9765,4416,376.7825945,45.024134,-84.130107
Michigan,Muskegon,172188,65616,71079.87066,43.289258,-86.751892
Michigan,Newaygo,48460,18406,2041.507908,43.562709,-85.791423
Michigan,Oakland,1202362,483698,368481.4472,42.660452,-83.38421
Michigan,Oceana,26570,10174,2494.6311,43.647255,-86.807575
Michigan,Ogemaw,21699,9283,11.17909618,44.33328,-84.128073
Michigan,Ontonagon,6780,3258,2210.608752,47.216602,-89.500463
Michigan,Oscoda,8640,3772,138.3935641,44.687257,-84.126905
Michigan,Otsego,86423,34376,30725.75082,45.021787,-84.576603
Michigan,Presque Isle,13376,5982,3984.791655,45.489515,-83.384019
Michigan,Roscommon,24449,11433,3207.447651,44.339517,-84.611271
Michigan,Saginaw,200169,79011,53294.94565,43.328267,-84.05541
Michigan,Sanilac,43114,17132,5017.710492,43.449155,-82.642815
Michigan,Schoolcraft,8485,3759,2242.183372,46.021122,-86.197029
Michigan,Shiawassee,70648,27481,19298.67995,42.951545,-84.146352
Michigan,Tuscola,55729,21590,3909.344654,43.487902,-83.436618
Michigan,Washtenaw,344791,137193,84707.33807,42.252327,-83.844634
Michigan,Wexford,32735,13021,8091.143982,44.331375,-85.570046
Minnesota,Aitkin,16202,7299,5241.525976,46.602446,-93.41976
Minnesota,Anoka,330844,121227,123792.8153,45.27411,-93.242723
Minnesota,Becker,32504,13224,10941.08572,46.937629,-95.741757
Minnesota,Beltrami,44442,16846,10223.61229,47.879508,-95.00505
Minnesota,Big Stone,5269,2293,2275.217593,45.419925,-96.402226
Minnesota,Blue Earth,64013,24445,24876.55536,44.03371,-94.064012
Minnesota,Carlton,35386,13538,8115.295834,46.603818,-92.671044
Minnesota,Carver,91042,32891,33484.39021,44.82132,-93.800091
Minnesota,Chisago,53887,19470,17827.89421,45.505444,-92.903849
Minnesota,Cottonwood,11687,4857,3786.590454,44.010711,-95.18313
Minnesota,Crow Wing,62500,26033,7442.154055,46.491653,-94.070718
Minnesota,Dakota,419558,159278,150361.1727,44.670893,-93.062481
Minnesota,Faribault,14553,6236,2048.859521,43.676522,-93.947234
Minnesota,Fillmore,26756,11028,1612.323387,43.679187,-92.093937
Minnesota,Freeborn,31255,13177,6634.803216,43.674202,-93.350289
Minnesota,Goodhue,46183,18730,6949.295323,44.406178,-92.716
Minnesota,Hennepin,1152425,475913,322438.8344,45.006121,-93.475228
Minnesota,Hubbard,20428,8661,4489.43549,47.095551,-94.91329
Minnesota,Isanti,37816,13972,9172.59497,45.562431,-93.296339
Minnesota,Itasca,45058,18773,11040.53677,47.490817,-93.611102
Minnesota,Kanabec,16239,6413,1892.103748,45.94776,-93.297788
Minnesota,Kandiyohi,42239,16732,15754.72876,45.152714,-95.004981
Minnesota,Kittson,4552,1986,3308.716851,48.77604,-96.780349
Minnesota,Koochiching,13311,5874,6630.339242,48.245489,-93.782842
Minnesota,Lac qui Parle,7259,3155,820.6101276,44.999857,-96.176838
Minnesota,Lake of the Woods,4045,1784,1665.974721,48.7681,-94.904633
Minnesota,Le Sueur,27703,10758,1390.244051,44.373424,-93.730143
Minnesota,McLeod,36651,14639,13977.97522,44.821657,-94.272323
Minnesota,Mahnomen,5413,2019,1904.716095,47.328387,-95.811089
Minnesota,Meeker,23300,9176,5315.338186,45.123155,-94.527346
Minnesota,Mille Lacs,26097,10166,1390.858143,45.929043,-93.632996
Minnesota,Morrison,33198,13080,9422.452143,46.020484,-94.266619
Minnesota,Mower,39163,15828,7399.982431,43.666249,-92.759514
Minnesota,Nicollet,32727,12201,13028.73303,44.358819,-94.245685
Minnesota,Nobles,21378,7946,6687.517146,43.677686,-95.763132
Minnesota,Norman,6852,2863,2172.215112,47.32947,-96.463807
Minnesota,Olmsted,144248,57080,30749.65695,44.003429,-92.406722
Minnesota,Otter Tail,57303,24055,13551.89681,46.405725,-95.714578
Minnesota,Pennington,114878,47087,28778.39511,48.069247,-96.037725
Minnesota,Pine,29750,11373,3485.765686,46.10094,-92.763094
Minnesota,Pipestone,9596,4054,2872.132867,44.015361,-96.257015
Minnesota,Ramsey,520091,207646,116312.4683,45.01525,-93.100141
Minnesota,Red Lake,4089,1737,4055.975706,47.865487,-96.08718
Minnesota,Redwood,16059,6580,7558.325656,44.403536,-95.254241
Minnesota,Renville,18200,7625,6658.234646,44.723697,-94.955617
Minnesota,Rock,171544,67508,54113.56903,43.669587,-96.263238
Minnesota,Roseau,15629,6300,5781.585744,48.761068,-95.821504
Minnesota,St. Louis,1199180,489548,336735.4032,47.578635,-92.51457
Minnesota,Sherburne,88499,30212,13622.20682,45.453176,-93.76913
Minnesota,Sibley,15226,6034,242.3205997,44.575734,-94.230123
Minnesota,Stearns,150642,56232,36743.58826,45.555235,-94.610482
Minnesota,Steele,38551,15194,11650.13506,44.015261,-93.220453
Minnesota,Swift,9783,4236,2525.130839,45.27581,-95.690124
Minnesota,Traverse,3558,1524,1386.2991,45.769935,-96.474832
Minnesota,Wabasha,21676,8822,2234.415471,44.289693,-92.23334
Minnesota,Wadena,13843,5705,1012.399886,46.586986,-94.988608
Minnesota,Waseca,19136,7281,7001.372801,44.01846,-93.589844
Minnesota,Watonwan,11211,4520,552.3150973,43.978109,-94.613798
Minnesota,Wilkin,6576,2690,1933.224561,46.362335,-96.476657
Minnesota,Winona,51461,19554,6241.648404,43.982268,-91.776708
Minnesota,Yellow Medicine,10438,4292,3379.613121,44.715736,-95.862756
Mississippi,Alcorn,37057,15039,6527.19724,34.886569,-88.581109
Mississippi,Amite,13131,5351,2342.679635,31.203933,-90.795542
Mississippi,Attala,19564,7619,4423.317121,33.09047,-89.588622
Mississippi,Bolivar,34145,12727,17468.35113,33.799139,-90.88412
Mississippi,Coahoma,26151,9461,5747.447578,34.22867,-90.603165
Mississippi,Copiah,29449,10708,7596.927561,31.866915,-90.448758
Mississippi,Forrest,74934,28746,15822.71008,31.18858,-89.259447
Mississippi,George,22578,7982,2489.474241,30.855431,-88.642268
Mississippi,Grenada,21906,8779,3265.174576,33.770031,-89.80274
Mississippi,Hinds,245285,91351,72513.46686,32.267788,-90.466017
Mississippi,Humphreys,27913,10827,4884.288474,33.130996,-90.523421
Mississippi,Issaquena,1406,472,597.1652752,32.755539,-91.003535
Mississippi,Itawamba,23401,8881,3494.872665,34.281075,-88.363127
Mississippi,Kemper,10456,3920,5149.95882,32.750136,-88.625631
Mississippi,Leake,23805,8272,5919.088533,32.760737,-89.522236
Mississippi,Leflore,32317,11577,9308.82728,33.54979,-90.294934
Mississippi,Neshoba,29676,10856,2383.193018,32.752518,-89.119274
Mississippi,Noxubee,11545,4305,1852.610807,33.106508,-88.566004
Mississippi,Oktibbeha,47671,18820,19443.67872,33.422313,-88.876151
Mississippi,Panola,58503,22110,12466.63492,34.365205,-89.963065
Mississippi,Pearl River,55834,20816,5944.627807,30.774793,-89.586904
Mississippi,Pontotoc,67449,25826,15953.22114,34.227081,-89.037239
Mississippi,Prentiss,25276,9812,2403.862754,34.621104,-88.522179
Mississippi,Rankin,141617,52836,41551.28579,32.267123,-89.946063
Mississippi,Sharkey,4916,1834,1370.176542,32.892395,-90.827613
Mississippi,Sunflower,29450,8822,11572.59513,33.605529,-90.59509
Mississippi,Tallahatchie,15378,4856,7889.430913,33.954527,-90.172245
Mississippi,Tate,28886,10035,7647.208403,34.649553,-89.943105
Mississippi,Tippah,22232,8597,1792.240428,34.763618,-88.918819
Mississippi,Tishomingo,19593,8148,0,34.737697,-88.236064
Mississippi,Tunica,10778,3927,3014.620531,34.652201,-90.37177
Mississippi,Walthall,15443,5888,1640.958316,31.164492,-90.103431
Mississippi,Yalobusha,12678,5166,2668.685493,34.030666,-89.703807
Mississippi,Yazoo,28065,8860,9488.930811,32.765675,-90.387928
Missouri,Andrew,17291,6700,2430.253194,39.988863,-94.803551
Missouri,Audrain,25529,9590,5756.891344,39.21448,-91.843415
Missouri,Bates,17049,6744,1617.085441,38.257217,-94.339246
Missouri,Bollinger,12363,4847,3511.582107,37.318346,-90.024604
Missouri,Callaway,44332,16333,8791.411652,38.835547,-91.923446
Missouri,Cape Girardeau,75674,29848,22648.17251,37.384141,-89.685658
Missouri,Chariton,7831,3242,803.6553322,39.517968,-92.96162
Missouri,Cole,75990,29722,22756.06728,38.503233,-92.280027
Missouri,Cooper,17601,6554,5630.256234,38.845386,-92.812323
Missouri,Dent,15657,6338,3947.224686,37.603075,-91.489716
Missouri,Dunklin,31953,12837,7072.784006,36.306905,-90.065394
Missouri,Gasconade,15222,6250,712.8849573,38.441183,-91.50578
Missouri,Gentry,6738,2674,204.9565871,40.208127,-94.405321
Missouri,Hickory,9627,4371,1312.760758,37.9367,-93.322834
Missouri,Holt,15347,6580,8201.724689,40.095724,-95.219072
Missouri,Howell,40400,16192,8678.677006,36.774369,-91.887368
Missouri,Laclede,35571,14081,15613.80008,37.659688,-92.59484
Missouri,McDonald,23083,8404,1714.959156,36.630218,-94.343956
Missouri,Maries,9176,3705,527.6866269,38.162615,-91.923601
Missouri,Moniteau,15607,5532,1585.240573,38.633037,-92.583642
Missouri,New Madrid,18956,7742,879.2181616,36.594261,-89.655948
Missouri,Nodaway,23370,8545,12450.68608,40.361136,-94.883146
Missouri,Oregon,10881,4527,1893.628733,36.68531,-91.401827
Missouri,Ozark,9723,4194,5364.680248,36.64959,-92.458549
Missouri,Pemiscot,18296,7350,1519.76001,36.209916,-89.785942
Missouri,Pettis,42201,16428,5843.380681,38.727367,-93.285207
Missouri,Phelps,54344,21343,10405.18809,37.866326,-91.790349
Missouri,Platte,130226,52599,42594.62186,39.378696,-94.761472
Missouri,Ralls,10167,4091,763.3050684,39.553455,-91.524787
Missouri,Ray,23494,8957,5265.168297,39.308401,-93.995746
Missouri,Reynolds,6696,2778,3001.192309,37.360857,-90.969516
Missouri,Ste. Genevieve,18145,7040,4469.056207,37.885845,-90.161531
Missouri,St. Francois,65359,23981,12928.47703,37.810707,-90.473868
Missouri,Scotland,41000,15494,7891.523664,40.447686,-92.142824
Missouri,Shannon,22027,6592,12179.59138,37.152498,-91.391328
Missouri,Stoddard,29968,12255,1837.730483,36.851557,-89.947481
Missouri,Taney,51675,20755,22341.6131,36.649827,-93.042819
Missouri,Texas,46648,17269,12927.45865,37.314257,-91.964478
Missouri,St. Louis City,319294,142057,18890.57964,38.640702,-90.445954
Montana,Beaverhead,9246,4014,2571.140903,45.133863,-112.892869
Montana,Big Horn,24533,8565,7655.704198,45.407869,-107.518163
Montana,Broadwater,5612,2347,1432.071432,46.329849,-111.497873
Montana,Carbon,112615,45621,21596.37659,45.224468,-109.028554
Montana,Cascade,81327,33809,23391.88563,47.316443,-111.350571
Montana,Chouteau,5813,2294,4150.573464,47.886834,-110.4362
Montana,Daniels,1751,798,469.281523,48.794429,-105.541739
Montana,Deer Lodge,9298,4018,597.9088864,46.094672,-113.141624
Montana,Fallon,2890,1233,648.4119066,46.318184,-104.405718
Montana,Fergus,11586,5099,4564.057539,47.225221,-109.232138
Montana,Flathead,90928,37504,13897.09415,48.314678,-114.054295
Montana,Glacier,13399,4361,3632.559827,48.705671,-112.990502
Montana,Golden Valley,2564,1137,2564.000003,46.380624,-109.174586
Montana,Granite,3079,1417,675.4324642,46.395955,-113.427356
Montana,Hill,51185,19513,10866.94695,48.631959,-110.106321
Montana,Judith Basin,2072,924,1251.103261,47.032558,-110.30532
Montana,Lewis and Clark,63395,26694,12026.03478,47.122105,-112.38289
Montana,McCone,1734,774,714.3945284,47.629628,-105.757222
Montana,Meagher,1891,806,1890.999996,46.5857,-110.92174
Montana,Missoula,109299,45926,20315.20418,47.027263,-113.892691
Montana,Musselshell,4538,2046,1447.183261,46.505281,-108.439763
Montana,Petroleum,494,225,494.0000023,47.141917,-108.226575
Montana,Pondera,6153,2285,2790.267571,48.228604,-112.220761
Montana,Powder River,1743,755,912.9339993,45.408926,-105.555344
Montana,Ravalli,40212,16933,1122.235487,46.077744,-114.105795
Montana,Roosevelt,30271,10852,12295.28833,48.282747,-104.99517
Montana,Rosebud,9233,3395,2227.54421,46.173233,-106.666746
Montana,Sanders,11413,5121,4809.269781,47.756497,-115.180306
Montana,Silver Bow,34200,14932,4448.17845,45.896232,-112.660071
Montana,Stillwater,9117,3796,1457.707918,45.658577,-109.381702
Montana,Sweet Grass,3651,1590,825.6586995,45.811292,-109.944796
Montana,Toole,5324,2015,2323.646691,48.645125,-111.733472
Montana,Treasure,718,335,718,46.209558,-107.280369
Montana,Wheatland,2168,887,2167.99999,46.497047,-109.857147
Montana,Wibaux,1017,457,1016.999996,46.962966,-104.274518
Montana,Yellowstone,147972,60672,33653.63568,45.936987,-108.276656
Nebraska,Antelope,6685,2841,1349.933393,42.183225,-98.058037
Nebraska,Arthur,460,187,460.0000044,41.571944,-101.695898
Nebraska,Banner,690,293,679.9258672,41.53975,-103.726263
Nebraska,Box Butte,11308,4738,4639.691337,42.21038,-103.081779
Nebraska,Buffalo,61601,24277,15673.52812,40.855226,-99.074983
Nebraska,Burt,6858,2906,46.08295487,41.854179,-96.337746
Nebraska,Cherry,5713,2530,2210.731935,42.571323,-101.047653
Nebraska,Colfax,24265,9629,7270.425984,41.57496,-97.088945
Nebraska,Cuming,9139,3756,411.5060239,41.915865,-96.788517
Nebraska,Dawes,9182,3684,2663.356832,42.711214,-103.134872
Nebraska,Deuel,6305,2686,4460.19327,41.111903,-102.332609
Nebraska,Dixon,6000,2370,2036.412902,42.48528,-96.855862
Nebraska,Dundy,2008,897,667.9138633,40.180165,-101.681133
Nebraska,Frontier,2756,1168,2674.085579,40.530947,-100.406683
Nebraska,Furnas,4959,2185,1080.936012,40.191865,-99.909663
Nebraska,Gage,22311,9422,8423.069406,40.255234,-96.683453
Nebraska,Garden,2057,961,2054.1421,41.633364,-102.302985
Nebraska,Gosper,2044,849,1313.371233,40.509095,-99.823206
Nebraska,Hayes,967,414,967.0000036,40.537234,-101.047963
Nebraska,Hitchcock,2908,1301,2762.529685,40.176896,-101.044217
Nebraska,Hooker,736,326,117.1390055,41.920317,-101.117324
Nebraska,Kearney,6489,2681,825.1908374,40.50912,-98.947602
Nebraska,Keith,8368,3753,2302.398932,41.194245,-101.644449
Nebraska,Keya Paha,824,381,823.0450366,42.87548,-99.718351
Nebraska,Kimball,3821,1673,287.0820393,41.199274,-103.703153
Nebraska,Lancaster,892895,341937,160537.1067,40.783547,-96.688658
Nebraska,Loup,632,275,506.3783431,41.897665,-99.509776
Nebraska,Merrick,7845,3151,2996.466829,41.169801,-98.031051
Nebraska,Morrill,5042,2085,2557.650112,41.732204,-102.990594
Nebraska,Nance,3735,1525,1398.473968,41.402385,-97.991408
Nebraska,Nuckolls,4500,2079,1621.313334,40.176492,-98.046842
Nebraska,Otoe,15740,6362,2751.75772,40.637992,-96.131027
Nebraska,Perkins,5952,2530,2348.193731,40.857646,-101.627468
Nebraska,Red Willow,11055,4663,6446.198859,40.16942,-100.468576
Nebraska,Richardson,8363,3718,2554.400308,40.123743,-95.718603
Nebraska,Sarpy,158840,58102,51638.60323,41.115064,-96.109125
Nebraska,Saunders,20780,8040,5081.953186,41.223152,-96.640923
Nebraska,Scotts Bluff,36970,14928,3763.545547,41.850331,-103.701549
Nebraska,Thayer,5228,2296,907.9275252,40.173845,-97.596263
Nebraska,Thurston,259204,102808,84736.13342,42.154061,-96.533943
Nevada,Churchill,24877,9671,4659.5007,39.53771,-118.264165
Nevada,Elko,48818,17442,12444.83005,41.141133,-115.351424
Nevada,Esmeralda,783,389,760.9999994,37.778966,-117.632382
Nevada,Eureka,1987,836,1987.000007,39.977788,-116.272208
Nevada,Lander,5775,2213,878.5431254,39.90021,-117.04724
Nevada,Nye,43946,18032,37376.08651,37.965864,-116.459011
Nevada,Pershing,6753,2018,1035.677342,40.439639,-118.409477
Nevada,Storey,4010,1742,15.33804229,39.438385,-119.524646
Nevada,Washoe,421407,163445,143728.1086,40.734015,-119.662272
Nevada,White Pine,10030,3707,5474.407777,39.418234,-114.900605
Nevada,Carson City,55274,21427,13860.21497,39.15306,-119.747379
New Hampshire,Belknap,60088,24766,7616.478655,43.519109,-71.425366
New Hampshire,Cheshire,77117,30204,14950.3464,42.925455,-72.248217
New Hampshire,Coos,96098,41304,10967.03246,44.652548,-71.289431
New Hampshire,Grafton,89118,35986,8982.693965,43.926439,-71.842422
New Hampshire,Merrimack,146445,57069,22325.43613,43.299579,-71.680041
New Hampshire,Rockingham,465180,182903,156150.202,42.988599,-71.099072
New Hampshire,Strafford,123143,47100,30951.33393,43.293272,-71.035589
New Jersey,Atlantic,274549,102847,82314.46411,39.469354,-74.633758
New Jersey,Bergen,905116,335730,94797.60618,40.959698,-74.074727
New Jersey,Burlington,448734,166318,167763.8974,39.875786,-74.663006
New Jersey,Cape May,97265,40812,33470.79143,39.086142,-74.847716
New Jersey,Gloucester,325146,118564,143445.2671,39.722875,-75.145679
New Jersey,Hudson,634266,246437,4696.493895,40.731375,-74.078601
New Jersey,Hunterdon,128349,47169,23897.65916,40.565283,-74.911969
New Jersey,Monmouth,630380,233983,220729.185,40.287048,-74.152446
New Jersey,Ocean,576567,221111,241823.3957,39.865669,-74.258864
New Jersey,Passaic,501226,166785,65205.0257,41.03789,-74.29828
New Jersey,Salem,90885,35335,19432.52454,39.573828,-75.357356
New Mexico,Bernalillo,662564,266000,141939.998,35.054002,-106.669064
New Mexico,Catron,3725,1787,3725.000021,33.901858,-108.392088
New Mexico,Chaves,65645,23691,18451.28471,33.361604,-104.469837
New Mexico,Cibola,27213,8860,13775.04378,34.93205,-108.000374
New Mexico,Curry,70740,28432,18883.00307,34.572984,-103.346055
New Mexico,De Baca,2022,912,346.1006562,34.359273,-104.368696
New Mexico,Eddy,56214,21468,18880.68292,32.457835,-104.306434
New Mexico,Guadalupe,136220,47528,71438.28312,34.869782,-104.784968
New Mexico,Harding,1950,888,1915.784579,35.85958,-103.851495
New Mexico,Hidalgo,779663,218407,302883.7359,31.898052,-108.751929
New Mexico,Lea,64727,22236,13258.87599,32.795687,-103.413271
New Mexico,Los Alamos,17950,7663,10280.34655,35.870047,-106.307968
New Mexico,Luna,25095,9593,9434.635987,32.184523,-107.747191
New Mexico,McKinley,71492,21968,42113.41807,35.583878,-108.253266
New Mexico,Mora,4881,2114,1200.135619,35.982841,-104.921898
New Mexico,Quay,9041,4072,2579.905294,35.107018,-103.548071
New Mexico,Rio Arriba,40246,15768,16424.87303,36.509669,-106.693983
New Mexico,Sandoval,131561,47602,57835.92899,35.685091,-106.883119
New Mexico,Santa Fe,144170,61963,45425.19596,35.514324,-105.965771
New Mexico,Socorro,17866,7014,8816.77758,33.991658,-106.939136
New Mexico,Taos,32937,14806,11652.59149,36.576529,-105.637986
New Mexico,Torrance,16383,6264,6132.202365,34.554977,-105.890553
New Mexico,Valencia,76569,27500,46209.38713,34.71684,-106.806582
New York,Albany,340503,141942,102984.5307,42.58824,-73.97401
New York,Bronx,1385108,483449,8709.58373,40.848711,-73.852939
New York,Broome,200600,82167,26666.82942,42.161977,-75.830283
New York,Cattaraugus,80317,32263,6260.710345,42.239099,-78.662332
New York,Cayuga,80026,31445,2652.399818,43.008546,-76.574587
New York,Chemung,88830,35462,22575.86381,42.15528,-76.747179
New York,Chenango,50477,20436,1985.935134,42.478024,-75.602241
New York,Cortland,49336,18671,8673.38667,42.594039,-76.07624
New York,Dutchess,297488,107965,106863.4857,41.75477,-73.740041
New York,Erie,1276685,525437,283770.4642,42.752759,-78.778192
New York,Herkimer,64519,26324,11633.27119,43.407489,-75.011683
New York,New York,1585873,763846,2,40.776642,-73.970187
New York,Niagara,216469,90556,36412.82426,43.456731,-78.792142
New York,Onondaga,467026,187686,106559.4338,43.006516,-76.196134
New York,Ontario,107931,43019,11866.36898,42.856357,-77.303497
New York,Oswego,122109,46400,10929.55365,43.461443,-76.209262
New York,Queens,2230722,780117,8275.641769,40.658566,-73.838017
New York,Rensselaer,159429,64702,37698.89544,42.710421,-73.513845
New York,Rockland,311687,99242,68948.74921,41.154627,-74.024662
New York,St. Lawrence,111944,41605,22222.18591,44.488112,-75.074311
New York,Saratoga,219607,88296,53801.55492,43.106135,-73.855387
New York,Schenectady,154727,62886,37282.0876,42.817552,-74.043559
New York,Schoharie,32749,13166,8550.379493,42.591294,-74.438172
New York,Seneca,91996,35167,14624.69308,42.782294,-76.827088
New York,Tioga,93106,37077,11027.4718,42.178057,-76.297456
New York,Tompkins,101564,38967,16624.58451,42.453006,-76.473483
New York,Ulster,182493,71049,45858.76719,41.947212,-74.265458
New York,Westchester,949113,347232,135257.9434,41.15277,-73.745912
New York,Wyoming,94227,36425,12389.91493,42.701363,-78.228567
New York,Yates,25348,9517,108.430103,42.638237,-77.104324
North Carolina,Alamance,151131,59960,36017.47541,36.043954,-79.400573
North Carolina,Alleghany,27405,11669,998.6139346,36.489356,-81.132299
North Carolina,Anson,26948,9755,2267.379831,34.974996,-80.109959
North Carolina,Ashe,27281,11755,6044.389288,36.443469,-81.499334
North Carolina,Avery,17797,6664,116.2707029,36.07209,-81.920285
North Carolina,Beaufort,209992,84886,81735.89925,35.482313,-76.842014
North Carolina,Bertie,21282,8359,7092.701807,36.059043,-76.962364
North Carolina,Bladen,35190,14430,5044.784705,34.591938,-78.539489
North Carolina,Brunswick,124865,52663,34075.68775,34.038754,-78.227765
North Carolina,Buncombe,238318,100412,64118.12284,35.609374,-82.530415
North Carolina,Cabarrus,178011,65666,59368.13962,35.388369,-80.552694
North Carolina,Carteret,66469,28870,21722.62689,34.858343,-76.53586
North Carolina,Caswell,23719,9190,1855.471518,36.394298,-79.339609
North Carolina,Catawba,154358,60887,38265.03404,35.661883,-81.214906
North Carolina,Chowan,14793,6059,4171.019553,36.128979,-76.602752
North Carolina,Columbus,58098,22489,5818.93689,34.261602,-78.639308
North Carolina,Craven,103505,40299,38961.31024,35.116829,-77.08132
North Carolina,Currituck,23547,8880,3092.948462,36.372174,-75.941224
North Carolina,Dare,33920,14335,12196.60518,35.606269,-75.767536
North Carolina,Davidson,789559,324014,188544.3976,35.795131,-80.207107
North Carolina,Davie,41240,16245,12609.03514,35.929355,-80.542552
North Carolina,Duplin,58505,22495,5785.508166,34.934403,-77.933543
North Carolina,Durham,267587,109348,81914.03875,36.033822,-78.87812
North Carolina,Edgecombe,56552,21680,9261.904184,35.917051,-77.602662
North Carolina,Gaston,206086,79867,73313.69134,35.293344,-81.177256
North Carolina,Gates,12197,4665,4.764051285,36.442135,-76.702355
North Carolina,Granville,59916,20628,12925.22872,36.299884,-78.657634
North Carolina,Guilford,488406,196628,128025.6738,36.079065,-79.788665
North Carolina,Halifax,90932,37055,20429.33775,36.251438,-77.644842
North Carolina,Harnett,114678,41594,22353.71012,35.368635,-78.87161
North Carolina,Haywood,77823,33022,10279.11249,35.557099,-82.972823
North Carolina,Hertford,24669,9334,4438.772689,36.363517,-76.981616
North Carolina,Hoke,46952,16532,8168.851965,35.017233,-79.241964
North Carolina,Hyde,7230,2719,6646.823353,35.408157,-76.153687
North Carolina,Iredell,159437,61215,40683.2265,35.806355,-80.874539
North Carolina,Johnston,179835,66221,29316.97608,35.5134,-78.367311
North Carolina,Lenoir,59495,24327,17122.32597,35.240068,-77.63551
North Carolina,McDowell,67109,27014,1304.956588,35.682232,-82.048029
North Carolina,Mecklenburg,952355,375708,220627.9053,35.246862,-80.833832
North Carolina,Moore,116513,47229,32279.33842,35.308272,-79.492725
North Carolina,Nash,95840,37782,17397.50236,35.965945,-77.987555
North Carolina,New Hanover,202667,86046,66380.32809,34.183442,-77.864209
North Carolina,Northampton,332223,128081,76819.85453,36.421774,-77.398352
North Carolina,Onslow,177772,60092,65331.25579,34.763109,-77.499469
North Carolina,Pamlico,13144,5490,722.0191574,35.147575,-76.665268
North Carolina,Pasquotank,40661,14956,9078.13891,36.265184,-76.260696
North Carolina,Pender,52217,20333,13099.5059,34.512556,-77.888106
North Carolina,Perquimans,13453,5598,457.5562966,36.180897,-76.403244
North Carolina,Person,39464,15826,4822.346223,36.386336,-78.965644
North Carolina,Pitt,168148,67577,33962.70588,35.592965,-77.373138
North Carolina,Robeson,134168,47997,13658.10834,34.63921,-79.100881
North Carolina,Rutherford,330414,123698,85731.15455,35.402747,-81.919582
North Carolina,Sampson,63431,24005,3116.546989,34.989298,-78.371174
North Carolina,Stanly,60585,23589,3760.377719,35.310449,-80.254374
North Carolina,Stokes,47401,19416,7104.560462,36.393506,-80.266199
North Carolina,Surry,80731,32740,7616.424197,36.415416,-80.686463
North Carolina,Swain,13981,5672,214.2166239,35.568849,-83.465614
North Carolina,Transylvania,33090,14394,2519.931535,35.210079,-82.816653
North Carolina,Tyrrell,4407,1595,489.6665662,35.87042,-76.165345
North Carolina,Vance,45422,17395,3042.202506,36.365481,-78.405434
North Carolina,Wake,900993,345645,239600.427,35.789846,-78.650624
North Carolina,Watauga,51079,20403,4627.436818,36.235368,-81.709888
North Carolina,Yadkin,38406,15486,4719.320591,36.158765,-80.665164
North Carolina,Yancey,17818,7644,189.7644434,35.889455,-82.304119
North Dakota,Barnes,11066,4826,3337.411242,46.94255,-98.070195
North Dakota,Benson,6660,2233,2844.403513,48.071743,-99.351152
North Dakota,Billings,783,358,782.9999968,47.007044,-103.364016
North Dakota,Bottineau,6429,2832,2939.408518,48.794412,-100.831257
North Dakota,Bowman,3151,1385,939.7742774,46.110144,-103.505943
North Dakota,Burleigh,81308,33976,21693.40686,46.971843,-100.462001
North Dakota,Cavalier,3993,1818,1454.524154,48.768439,-98.46379
North Dakota,Dickey,5289,2180,673.4962042,46.107756,-98.496518
North Dakota,Divide,2071,977,688.7050356,48.814754,-103.509326
North Dakota,Dunn,47393,17774,10203.20643,47.354575,-102.612372
North Dakota,Emmons,3550,1594,1582.33032,46.284255,-100.237842
North Dakota,Foster,3343,1495,602.8319292,47.471431,-98.872876
North Dakota,Grand Forks,66861,27417,14613.11408,47.926003,-97.450851
North Dakota,Griggs,2420,1131,794.3187467,47.456334,-98.232286
North Dakota,Hettinger,2477,1056,2476.492583,46.435704,-102.454238
North Dakota,Kidder,2435,1059,2424.28816,46.938273,-99.731198
North Dakota,LaMoure,4139,1825,1539.825574,46.464195,-98.526057
North Dakota,McKenzie,6360,2410,2346.426091,47.742475,-103.403215
North Dakota,Mountrail,7673,2793,1006.626546,48.210291,-102.364756
North Dakota,Oliver,1846,756,1556.000715,47.118079,-101.33142
North Dakota,Pembina,7413,3257,3425.073259,48.766896,-97.545405
North Dakota,Ransom,5457,2310,888.7160405,46.449276,-97.647554
North Dakota,Rolette,13937,4783,1302.224128,48.768271,-99.840463
North Dakota,Sargent,3829,1675,838.7582613,46.108206,-97.63003
North Dakota,Slope,727,326,692.3788532,46.445834,-103.462462
North Dakota,Stutsman,21100,8931,5854.038176,46.972223,-98.956123
North Dakota,Towner,2246,1048,781.6049973,48.682183,-99.248158
North Dakota,Traill,8121,3394,1475.502122,47.446215,-97.164754
North Dakota,Walsh,11119,4746,2145.656945,48.376979,-97.72223
North Dakota,Ward,72333,29024,23155.88488,48.216686,-101.540537
North Dakota,Williams,60040,24368,16542.86919,48.355765,-103.501333
Ohio,Ashland,69296,26932,7661.721661,40.843273,-82.270127
Ohio,Ashtabula,101497,39363,21279.71464,41.906637,-80.745592
Ohio,Athens,64757,23578,9685.059456,39.332604,-82.045844
Ohio,Auglaize,45949,17972,3758.542297,40.561309,-84.224018
Ohio,Belmont,70400,28679,14648.24035,40.017682,-80.967727
Ohio,Clermont,197363,74828,89972.55559,39.052084,-84.149614
Ohio,Columbiana,107841,42683,18986.71896,40.770073,-80.778455
Ohio,Coshocton,36901,14658,4368.53026,40.29671,-81.930109
Ohio,Cuyahoga,1280122,545056,262967.8258,41.760392,-81.724217
Ohio,Darke,52959,20929,5546.145557,40.131542,-84.621248
Ohio,Defiance,39037,15268,5483.309271,41.321679,-84.486433
Ohio,Gallia,30934,12062,3592.165853,38.817046,-82.301746
Ohio,Geauga,93389,34264,23896.89286,41.499322,-81.173505
Ohio,Guernsey,40087,16210,9819.864987,40.056665,-81.497875
Ohio,Highland,45910,17774,5872.739095,39.184422,-83.601359
Ohio,Hocking,29380,11369,4176.217787,39.490342,-82.483447
Ohio,Licking,166492,63989,56340.02975,40.091505,-82.483435
Ohio,Lorain,301356,116274,103518.1901,41.438805,-82.179722
Ohio,Mahoning,238823,98712,70786.53312,41.01088,-80.770396
Ohio,Medina,218338,80673,54216.56882,41.116174,-81.899764
Ohio,Meigs,35523,14243,5781.580252,39.089807,-82.028397
Ohio,Morrow,46000,16771,553.8533062,40.525266,-82.797729
Ohio,Muskingum,86074,34271,16895.12414,39.966046,-81.943506
Ohio,Pickaway,55698,19624,4999.66849,39.648947,-83.052827
Ohio,Portage,231438,90036,66490.47597,41.168837,-81.197042
Ohio,Preble,42270,16341,5753.949345,39.73881,-84.644758
Ohio,Ross,78064,28919,13754.42263,39.323818,-83.059581
Ohio,Sandusky,60944,24182,6438.898527,41.355319,-83.142776
Ohio,Scioto,79499,30870,7541.977003,38.814889,-82.998675
Ohio,Trumbull,210312,86011,48085.82052,41.305911,-80.768701
Ohio,Tuscarawas,92582,36965,12554.26867,40.447448,-81.471157
Ohio,Van Wert,28744,11439,5285.914699,40.85552,-84.585775
Ohio,Vinton,13435,5260,5872.217237,39.252042,-82.485961
Ohio,Wood,329157,134330,87557.85681,41.360183,-83.622682
Ohio,Wyandot,22615,9091,1595.410791,40.839782,-83.313681
Oklahoma,Alfalfa,5642,2022,3316.195277,36.729703,-98.323445
Oklahoma,Atoka,14182,5391,5732.819395,34.392469,-96.036558
Oklahoma,Beaver,182804,75840,69067.91787,36.748334,-100.483056
Oklahoma,Beckham,22119,8163,6068.684036,35.270601,-99.690057
Oklahoma,Canadian,115541,42434,39407.4371,35.54341,-97.979844
Oklahoma,Cimarron,2475,1047,998.5401167,36.74839,-102.517698
Oklahoma,Coal,5925,2350,1618.158914,34.582861,-96.288039
Oklahoma,Cotton,6193,2483,5205.766538,34.290676,-98.373438
Oklahoma,Craig,20219,7874,4606.959755,36.76389,-95.201553
Oklahoma,Creek,69967,26539,11295.2883,35.907732,-96.379793
Oklahoma,Dewey,10111,3674,8121.035539,35.97796,-99.014385
Oklahoma,Garvin,27576,11069,3940.982945,34.70935,-97.312723
Oklahoma,Greer,6239,2181,1060.582201,34.933853,-99.552968
Oklahoma,Harmon,2922,1112,242.1644219,34.745971,-99.844194
Oklahoma,Hughes,31025,12116,9297.029371,35.052934,-96.251183
Oklahoma,Kay,46562,18577,18591.74566,36.814885,-97.143862
Oklahoma,Kingfisher,15034,5731,2754.836076,35.949431,-97.934568
Oklahoma,Latimer,11154,4208,2440.541209,34.875137,-95.272262
Oklahoma,Le Flore,50384,18878,8110.581732,34.897356,-94.695074
Oklahoma,Love,9423,3713,1911.045281,33.957775,-97.245124
Oklahoma,McClain,34506,12891,3958.551873,35.016436,-97.449803
Oklahoma,McCurtain,33151,12958,9193.161887,34.117073,-94.766086
Oklahoma,Major,7527,3109,1359.13354,36.313119,-98.542015
Oklahoma,Mayes,41259,16008,5190.724788,36.303804,-95.235638
Oklahoma,Muskogee,70990,27054,11040.09069,35.617551,-95.383911
Oklahoma,Nowata,10536,4224,2625.04092,36.789615,-95.613312
Oklahoma,Okfuskee,12191,4354,2857.415736,35.466804,-96.327762
Oklahoma,Oklahoma,718633,287598,161296.4948,35.554611,-97.409401
Oklahoma,Okmulgee,40069,15362,9550.361696,35.646879,-95.96458
Oklahoma,Payne,77350,30177,19120.51404,36.079225,-96.975255
Oklahoma,Pittsburg,45837,18012,17932.71334,34.92554,-95.74813
Oklahoma,Pushmataha,11572,4809,5048.168265,34.377899,-95.408082
Oklahoma,Roger Mills,3647,1470,2001.024437,35.708554,-99.741572
Oklahoma,Rogers,86905,31884,18578.76612,36.377794,-95.601383
Oklahoma,Sequoyah,42391,16208,8937.145744,35.502435,-94.750757
Oklahoma,Tillman,7992,3216,3232.435897,34.371085,-98.931701
Oklahoma,Tulsa,603403,241737,158504.9558,36.120318,-95.941813
Oklahoma,Wagoner,73085,26878,30363.40511,35.963479,-95.5141
Oklahoma,Washita,11629,4599,5331.312281,35.289497,-98.991436
Oklahoma,Woods,8878,3533,2342.418752,36.726984,-98.863649
Oklahoma,Woodward,20081,7654,6510.129706,36.425619,-99.273661
Oregon,Clackamas,375992,145790,52277.68991,45.160493,-122.195127
Oregon,Clatsop,37039,15742,5253.224889,46.024509,-123.705014
Oregon,Crook,28061,11479,5293.607937,44.163054,-120.371585
Oregon,Deschutes,157733,64090,34051.48044,43.915118,-121.225575
Oregon,Gilliam,1871,864,1022.111729,45.43059,-120.319901
Oregon,Harney,7422,3205,3836.55475,43.064449,-118.987169
Oregon,Hood River,22346,8173,3496.278635,45.511775,-121.655976
Oregon,Josephine,82713,34646,17536.65353,42.386981,-123.571626
Oregon,Klamath,66380,27280,24247.14066,42.683761,-121.646168
Oregon,Malheur,31313,10411,2848.388518,43.188082,-117.604045
Oregon,Multnomah,735334,304540,70809.82404,45.547693,-122.417173
Oregon,Tillamook,25250,10834,726.7888403,45.45589,-123.759299
Oregon,Umatilla,75889,26904,23260.42669,45.5912,-118.73388
Oregon,Wallowa,7008,3133,1895.861933,45.593753,-117.18558
Oregon,Wasco,25213,10031,10480.18211,45.164536,-121.165069
Oregon,Yamhill,99193,34726,16494.25087,45.247827,-123.316399
Pennsylvania,Allegheny,1223348,533960,320519.5276,40.469757,-79.980451
Pennsylvania,Armstrong,70842,29464,4420.335782,40.81238,-79.464129
Pennsylvania,Bedford,163496,64228,25418.84996,39.99862,-78.494751
Pennsylvania,Berks,411442,154356,71305.85461,40.413957,-75.92686
Pennsylvania,Blair,127089,52159,31251.86572,40.497922,-78.310636
Pennsylvania,Bucks,625249,234849,193366.7537,40.336887,-75.10706
Pennsylvania,Cambria,143679,58950,34705.40256,40.510312,-78.710463
Pennsylvania,Centre,153990,57573,26792.44529,40.90916,-77.84783
Pennsylvania,Chester,549157,201984,245849.7106,39.973965,-75.749732
Pennsylvania,Clarion,39988,16128,4208.682333,41.198159,-79.420369
Pennsylvania,Clearfield,81642,32288,15683.26158,41.000249,-78.473749
Pennsylvania,Dauphin,268100,110435,101019.9831,40.412565,-76.792634
Pennsylvania,Forest,17020,6347,3601.269721,41.513304,-79.249705
Pennsylvania,Huntingdon,45913,17280,922.4659216,40.422311,-77.968595
Pennsylvania,Indiana,88880,35005,17122.58822,40.651432,-79.087545
Pennsylvania,Juniata,24636,9476,1561.068426,40.530673,-77.400438
Pennsylvania,Lackawanna,214437,87226,31504.22366,41.440284,-75.609666
Pennsylvania,Lebanon,133568,52258,23668.5573,40.371559,-76.46487
Pennsylvania,Lehigh,349497,133983,94904.22032,40.614241,-75.590627
Pennsylvania,Luzerne,320918,131932,62086.14463,41.172787,-75.976035
Pennsylvania,Lycoming,116111,46700,21505.71572,41.34362,-77.055225
Pennsylvania,McKean,43450,17183,1207.12564,41.81459,-78.572463
Pennsylvania,Mifflin,46682,18743,6587.689154,40.601607,-77.651938
Pennsylvania,Montour,18267,7393,3215.397884,41.029291,-76.665195
Pennsylvania,Northumberland,106858,44782,7481.65386,40.851524,-76.709877
Pennsylvania,Philadelphia,1526006,599736,18760.34782,40.009376,-75.133346
Pennsylvania,Potter,140859,51222,26866.53036,41.748587,-77.894436
Pennsylvania,Schuylkill,148289,60192,12736.20165,40.703682,-76.217788
Pennsylvania,Snyder,39702,14750,2117.104325,40.755407,-77.072929
Pennsylvania,Susquehanna,43356,17798,4207.671688,41.819665,-75.800969
Pennsylvania,Venango,54984,22621,1858.662693,41.40198,-79.754418
Pennsylvania,Westmoreland,382623,160960,116073.514,40.311068,-79.466688
Rhode Island,Newport,82888,34911,27996.39498,41.502504,-71.283689
Rhode Island,Providence,626667,241717,104176.4266,41.869765,-71.578626
South Carolina,Abbeville,25417,9990,2670.978027,34.213809,-82.46046
South Carolina,Aiken,160099,64253,39829.80659,33.550013,-81.632983
South Carolina,Allendale,10419,3706,243.4733414,32.979757,-81.363265
South Carolina,Bamberg,15987,6048,4061.372014,33.203021,-81.053161
South Carolina,Barnwell,22621,8937,6.933946205,33.260552,-81.434228
South Carolina,Berkeley,282012,105274,92600.2598,33.2077,-79.953655
South Carolina,Charleston,350209,144309,80530.27196,32.800458,-79.94248
South Carolina,Chesterfield,362970,133853,152422.4246,34.637018,-80.159227
South Carolina,Clarendon,34971,13132,3754.540087,33.664682,-80.217889
South Carolina,Colleton,38892,15131,14682.40654,32.835018,-80.655244
South Carolina,Darlington,68681,26531,8149.908105,34.332185,-79.962115
South Carolina,Dillon,32062,11923,1409.348994,34.390172,-79.374964
South Carolina,Edgefield,26985,9348,5651.205983,33.776498,-81.968245
South Carolina,Florence,141308,54640,29154.04342,34.028535,-79.710233
South Carolina,Georgetown,60158,24524,13993.50676,33.417531,-79.296333
South Carolina,Greenville,451225,176531,191027.032,34.892645,-82.372077
South Carolina,Hampton,158526,62629,44669.67137,32.778335,-81.143817
South Carolina,Horry,269291,112225,60958.12561,33.909269,-78.976675
South Carolina,Kershaw,61697,23928,20530.31653,34.338356,-80.590885
South Carolina,Lexington,269433,104970,88802.09936,33.892589,-81.272831
South Carolina,McCormick,10233,4027,330.0932817,33.897605,-82.316192
South Carolina,Marlboro,28933,10383,2695.916491,34.60167,-79.679435
South Carolina,Newberry,37508,14709,10204.97555,34.28973,-81.600053
South Carolina,Orangeburg,92501,35788,17217.03626,33.436135,-80.802913
South Carolina,Saluda,19875,7527,522.7848015,34.005278,-81.727903
South Carolina,Spartanburg,284307,109246,96212.6728,34.93329,-81.99106
South Carolina,Williamsburg,48491,17578,4574.183457,33.626463,-79.716475
South Dakota,Aurora,2710,1102,2016.24611,43.724719,-98.577587
South Dakota,Beadle,17398,7276,5040.351452,44.418265,-98.279422
South Dakota,Bennett,3431,1090,3319.803232,43.186912,-101.677181
South Dakota,Bon Homme,7070,2457,998.0503088,42.985799,-97.884199
South Dakota,Brookings,31965,12029,15601.59077,44.376675,-96.797797
South Dakota,Brule,5255,2136,1648.866481,43.729873,-99.092909
South Dakota,Charles Mix,9129,3249,916.2110874,43.206185,-98.595143
South Dakota,Codington,27227,11432,10746.30412,44.966285,-97.198837
South Dakota,Corson,4050,1260,3636.368817,45.685671,-101.179665
South Dakota,Davison,19504,8296,6399.844992,43.680439,-98.155868
South Dakota,Day,5710,2504,2790.821309,45.355034,-97.58143
South Dakota,Edmunds,4071,1607,2591.615622,45.41168,-99.205362
South Dakota,Fall River,7094,3272,3374.627757,43.221619,-103.512609
South Dakota,Faulk,2364,869,1139.917193,45.065476,-99.153564
South Dakota,Gregory,4271,1936,1213.416055,43.179098,-99.202153
South Dakota,Haakon,1937,850,800.5009998,44.282885,-101.59546
South Dakota,Hamlin,5903,2108,5671.283754,44.680619,-97.178598
South Dakota,Hand,3431,1494,1177.088759,44.546713,-99.004575
South Dakota,Hanson,3331,1045,595.4522885,43.680612,-97.796845
South Dakota,Hutchinson,29493,11742,6523.636707,43.33671,-97.749383
South Dakota,Jerauld,2071,870,2071.000001,44.06341,-98.62317
South Dakota,Kingsbury,5148,2222,2689.471728,44.362969,-97.499313
South Dakota,Lyman,3755,1392,3138.793698,43.894812,-99.841925
South Dakota,McCook,5618,2168,1820.203986,43.678924,-97.362036
South Dakota,Mellette,2048,693,2035.758276,43.58469,-100.760955
South Dakota,Miner,2389,1032,910.8661395,44.021541,-97.608122
South Dakota,Minnehaha,169468,67028,40318.04625,43.667472,-96.795726
South Dakota,Moody,6486,2554,4976.282228,44.012429,-96.676054
South Dakota,Roberts,11078,4182,3593.201734,45.623397,-96.947551
South Dakota,Sanborn,2355,975,2328.430048,44.021032,-98.092105
South Dakota,Spink,6415,2608,2779.806801,44.923772,-98.339615
South Dakota,Stanley,2966,1228,399.6514191,44.415547,-100.749163
South Dakota,Sully,1373,610,1373,44.722325,-100.131399
South Dakota,Tripp,5644,2419,1811.3484,43.349729,-99.876219
South Dakota,Walworth,107666,42091,32173.71858,45.427605,-100.027856
South Dakota,Yankton,22438,8770,5711.258962,43.006603,-97.388361
South Dakota,Ziebach,2801,836,1047.091303,44.989764,-101.660827
Tennessee,Bledsoe,12876,4697,395.6119429,35.593561,-85.20591
Tennessee,Cannon,13801,5472,319.8339099,35.808394,-86.062404
Tennessee,Cheatham,39105,14520,3246.198597,36.255169,-87.100808
Tennessee,Cocke,35662,14788,7530.773652,35.916198,-83.119224
Tennessee,Crockett,18305,7131,2369.370821,35.818795,-89.132494
Tennessee,Dickson,49666,19107,4902.484684,36.145533,-87.364155
Tennessee,Dyer,38335,15183,11876.08898,36.054196,-89.398306
Tennessee,Fentress,17959,7250,37.12672827,36.369888,-84.937764
Tennessee,Giles,46771,19090,2492.633806,35.202723,-87.035319
Tennessee,Grainger,22657,9029,0,36.277509,-83.509546
Tennessee,Hamblen,62544,24560,34109.92364,36.218397,-83.266071
Tennessee,Hardeman,31392,11023,4418.83834,35.218785,-88.988697
Tennessee,Hawkins,56833,23343,10958.18564,36.452211,-82.931386
Tennessee,Loudon,48556,19826,9602.791781,35.73745,-84.316204
Tennessee,McMinn,52266,20865,10923.62707,35.424471,-84.619962
Tennessee,McNairy,26075,10326,6205.957782,35.175228,-88.563629
Tennessee,Maury,80956,31663,21203.16011,35.615696,-87.077763
Tennessee,Obion,31807,13077,2342.294884,36.358171,-89.149879
Tennessee,Overton,22083,8820,75.3901308,36.34485,-85.283076
Tennessee,Pickett,5077,2177,38.9002502,36.559364,-85.075741
Tennessee,Rhea,31809,12276,6751.23261,35.600587,-84.949552
Tennessee,Roane,69107,28571,12469.66829,35.847249,-84.523942
Tennessee,Sequatchie,14112,5519,5376.968203,35.372336,-85.410082
Tennessee,Trousdale,7870,2976,0,36.39303,-86.156691
Tennessee,Unicoi,18313,7726,672.9793133,36.100126,-82.418214
Tennessee,Weakley,35021,13898,6785.011835,36.303596,-88.721194
Texas,Andrews,14786,5259,3961.318246,32.312258,-102.640206
Texas,Angelina,86771,31090,20438.20757,31.251951,-94.611056
Texas,Aransas,23158,9795,7331.40158,28.104225,-96.977983
Texas,Archer,9054,3538,1477.349445,33.616305,-98.687267
Texas,Atascosa,44911,15246,11248.687,28.891478,-98.535381
Texas,Austin,28417,10837,2280.5042,29.891901,-96.27017
Texas,Bailey,7165,2468,465.2306196,34.067521,-102.830345
Texas,Bandera,20485,8564,7158.456173,29.756389,-99.248285
Texas,Bastrop,74171,25840,21735.28344,30.100771,-97.310643
Texas,Baylor,3726,1669,277.2431041,33.618802,-99.208189
Texas,Bee,31861,9042,15524.50434,28.416077,-97.742586
Texas,Bexar,1714773,608931,560136.3012,29.448671,-98.520147
Texas,Blanco,10497,4309,485.0628804,30.266456,-98.399217
Texas,Borden,641,264,641.0000001,32.73859,-101.439199
Texas,Bosque,18212,7254,1648.702273,31.900819,-97.637641
Texas,Bowie,92565,34669,26173.86824,33.446062,-94.422393
Texas,Brazoria,313166,106589,81897.91086,29.167817,-95.434647
Texas,Brazos,194851,71739,63344.09807,30.656713,-96.302394
Texas,Brewster,9232,4207,3617.020671,29.808997,-103.252458
Texas,Briscoe,1637,692,1637.000002,34.525172,-101.205893
Texas,Burleson,17187,6822,3018.324088,30.493487,-96.622091
Texas,Burnet,42750,16511,10675.33087,30.78963,-98.201187
Texas,Callahan,13544,5447,5128.945519,32.29315,-99.372249
Texas,Camp,12401,4678,1315.363387,32.974581,-94.979085
Texas,Carson,6182,2452,1090.820685,35.405496,-101.355356
Texas,Castro,8062,2744,1237.171516,34.533621,-102.258786
Texas,Childress,7041,2326,3760.024725,34.529337,-100.208336
Texas,Cochran,3127,1113,662.1636427,33.60844,-102.830449
Texas,Coke,3320,1466,3319.212896,31.877105,-100.635236
Texas,Coleman,8895,3857,2427.613147,31.914205,-99.346622
Texas,Collin,782341,283759,174226.8434,33.194737,-96.579723
Texas,Collingsworth,3057,1179,224.9440881,34.963358,-100.272135
Texas,Colorado,20874,8182,4304.410642,29.596296,-96.508935
Texas,Comal,108472,41363,17354.11246,29.805491,-98.260544
Texas,Concho,4087,1041,1092.264684,31.318865,-99.863648
Texas,Cooke,38437,14513,3454.449646,33.639196,-97.210343
Texas,Coryell,75388,22545,37996.81726,31.391177,-97.798022
Texas,Cottle,1505,677,1504.11735,34.091906,-100.276442
Texas,Crane,4375,1471,588.0049711,31.422796,-102.487774
Texas,Crosby,6059,2237,291.1713791,33.609144,-101.29871
Texas,Culberson,2398,908,186.1433384,31.445908,-104.526945
Texas,Dallam,6703,2448,3239.892887,36.28637,-102.59402
Texas,Deaf Smith,19372,6365,3973.256943,34.940766,-102.607564
Texas,Denton,662614,240289,181503.8717,33.205132,-97.12114
Texas,DeWitt,20097,7407,1102.646352,29.082346,-97.361654
Texas,Dickens,2444,930,484.9589176,33.615363,-100.787617
Texas,Dimmit,9996,3421,5388.104315,28.423587,-99.765871
Texas,Donley,3677,1517,573.7145028,34.955036,-100.815846
Texas,Eastland,18583,7465,4882.976163,32.324645,-98.83656
Texas,Ector,137130,48688,38197.18595,31.865301,-102.542507
Texas,Erath,37890,14569,16051.45082,32.238136,-98.222377
Texas,Falls,17866,6302,2718.568091,31.25193,-96.934127
Texas,Fisher,3974,1668,676.4972192,32.740473,-100.40312
Texas,Foard,1336,573,1336.000005,33.963306,-99.816828
Texas,Fort Bend,585375,187384,230004.6852,29.526602,-95.771015
Texas,Freestone,19816,7259,3444.95918,31.70126,-96.144487
Texas,Frio,17217,4854,4562.790315,28.869334,-99.108788
Texas,Gaines,17526,5606,563.215617,32.743942,-102.631561
Texas,Galveston,291309,108969,115276.6306,29.228247,-94.895511
Texas,Garza,6461,1671,1281.367737,33.183792,-101.301134
Texas,Gillespie,24837,10572,2663.452342,30.325091,-98.941851
Texas,Glasscock,1226,441,1204.148021,31.868006,-101.521494
Texas,Goliad,7210,2868,2653.520984,28.6607,-97.430415
Texas,Gonzales,19807,7120,8514.077362,29.461912,-97.49192
Texas,Gregg,121730,45798,28600.7502,32.486397,-94.816276
Texas,Grimes,26604,8902,8323.359675,30.543231,-95.988082
Texas,Hansford,5613,2006,1931.696403,36.272847,-101.35693
Texas,Hartley,6062,1771,1450.075897,35.840244,-102.610047
Texas,Hays,157107,55245,15386.68234,30.061225,-98.029267
Texas,Hemphill,3807,1382,403.4451611,35.815956,-100.27921
Texas,Hockley,22935,8242,10949.13442,33.605932,-102.343398
Texas,Hood,51182,20795,12284.8921,32.430149,-97.831677
Texas,Hudspeth,3476,1174,3462.921017,31.450868,-105.377549
Texas,Hunt,86129,32076,7300.664919,33.123308,-96.08423
Texas,Irion,1599,653,1598.587455,31.303424,-100.981304
Texas,Jack,9044,3136,4189.318226,33.232161,-98.171176
Texas,Jim Hogg,5300,1902,1851.839536,27.041212,-98.700127
Texas,Jim Wells,40838,13961,9051.453485,27.733516,-98.090814
Texas,Karnes,14824,4463,2164.133274,28.908996,-97.852205
Texas,Kaufman,103350,34964,16128.44288,32.598944,-96.288377
Texas,Kenedy,416,147,404.2091404,26.890213,-97.591143
Texas,Kerr,49625,20550,6855.192973,30.059953,-99.353339
Texas,Kimble,4607,2016,1101.764362,30.479472,-99.746396
Texas,King,1931535,789345,322072.8189,33.614268,-100.245345
Texas,Kinney,3598,1350,1673.985892,29.347086,-100.4177
Texas,Kleberg,32061,11097,10662.10343,27.438735,-97.66062
Texas,Lamb,13977,5081,507.9588464,34.068861,-102.348018
Texas,Lampasas,19677,7539,3072.365015,31.196731,-98.240889
Texas,Lavaca,19263,7808,2684.81153,29.382578,-96.923633
Texas,Lipscomb,3302,1263,3301.985263,36.2802,-100.272683
Texas,Live Oak,11531,4257,1181.235303,28.351535,-98.126961
Texas,Llano,19301,9008,7016.505744,30.707584,-98.68469
Texas,Loving,82,39,81.99999951,31.844936,-103.561229
Texas,Lubbock,278831,105781,55577.82623,33.611469,-101.819944
Texas,Lynn,5915,2246,2085.655054,33.178412,-101.818493
Texas,McCulloch,8283,3338,3386.193824,31.205477,-99.359856
Texas,McLennan,234906,86892,103286.5851,31.549493,-97.201472
Texas,McMullen,707,310,692.8615667,28.384922,-98.578853
Texas,Matagorda,36702,13894,12741.37232,28.77476,-96.001532
Texas,Maverick,54258,15563,20085.67822,28.729787,-100.316678
Texas,Milam,24757,9408,6631.554335,30.791242,-96.984395
Texas,Montague,19719,7989,3700.609981,33.678356,-97.725014
Texas,Motley,1210,542,223.290367,34.057899,-100.793152
Texas,Nacogdoches,64524,23861,14537.13926,31.62056,-94.62025
Texas,Navarro,47735,17380,10575.43676,32.048448,-96.476909
Texas,Nolan,15216,5999,3665.3144,32.312338,-100.418108
Texas,Nueces,340223,124587,115121.7536,27.738737,-97.51866
Texas,Ochiltree,10223,3617,1199.695284,36.278744,-100.815864
Texas,Palo Pinto,28111,10871,16444.47965,32.752204,-98.317967
Texas,Parker,116927,42069,26691.91003,32.777096,-97.805905
Texas,Parmer,10269,3413,5578.863488,34.532163,-102.784853
Texas,Pecos,15507,4894,5753.096197,30.770894,-102.71986
Texas,Presidio,7818,2906,5429.905706,30.005891,-104.261619
Texas,Rains,10914,4377,0,32.87058,-95.79544
Texas,Randall,120725,47975,16382.23277,34.962529,-101.895547
Texas,Reagan,3367,1156,214.3562824,31.375191,-101.514395
Texas,Real,3309,1374,3308.999986,29.830097,-99.812549
Texas,Reeves,13783,3839,3001.705219,31.308366,-103.712706
